/rom/gps3.lc
That's not going to do it. See `help`.
tracker $ lua /rom/gps3.lc
Press CTRL+Z to exit Lua
Powering up GSM

GSM: IIII
GSM: RDY
GSM: AT+IFC=2,2
GSM: OK
GSM: 
GSM: 
GSM: ATE0
GSM: 
GSM: 
GSM: OK
GSM powered

Checking if PIN is required...

GSM: 
GSM: +CFUN: 1
GSM: 
GSM: +CPIN: READY
GSM: 
GSM: GPS Ready
Waiting for GSM to be registered to the network)

GSM: 
GSM: Call Ready
GSM ready and registed to network

Sending GPS power-on command, waiting for response...

GSM: 
GSM: OK
0
Sending GPS cold reset command, waiting for response...

GPS: IIII
GPS: 
GPS: $GPGGA,002917.000,,,,,0,0,,,M,,M,,*45
GPS: $GPGLL,,,,,002917.000,V,N*77
GPS: $GPGSA,A,1,,,,,,,,,,,,,,,*1E
GPS: $GPGSV,1,1,00*79
GPS: $GPRMC,002917.000,V,,,,,,,101010,,,N*41
GPS: $GPVTG,,T,,M,,N,,K,N*2C
GPS: 
GSM: 
GSM: OK
0
Setup done, waiting for GPS data from UART 2...

GPS: $GPGGA,002918.000,,,,,0,0,,,M,,M,,*4A
GPS: $GPGLL,,,,,002918.000,V,N*78
GPS: $GPGSA,A,1,,,,,,,,,,,,,,,*1E
GPS: $GPGSV,1,1,00*79
GPS: $GPRMC,002918.000,V,,,,,,,101010,,,N*4E
GPS: $GPVTG,,T,,M,,N,,K,N*2C
GPS: 
GPS: $GPGGA,002919.000,,,,,0,0,,,M,,M,,*4B
GPS: $GPGLL,,,,,002919.000,V,N*79
GPS: $GPGSA,A,1,,,,,,,,,,,,,,,*1E
GPS: $GPGSV,1,1,00*79
GPS: $GPRMC,002919.000,V,,,,,,,101010,,,N*4F
GPS: $GPVTG,,T,,M,,N,,K,N*2C
GPS: 
GPS: $GPGGA,002920.000,,,,,0,0,,,M,,M,,*41
GPS: $GPGLL,,,,,002920.000,V,N*73
GPS: $GPGSA,A,1,,,,,,,,,,,,,,,*1E
GPS: $GPGSV,1,1,01,22,,,34*7F
GPS: $GPRMC,002920.000,V,,,,,,,101010,,,N*45
GPS: $GPVTG,,T,,M,,N,,K,N*2C
GPS: 
GPS: $GPGGA,002921.000,,,,,0,0,,,M,,M,,*40
GPS: $GPGLL,,,,,002921.000,V,N*72
GPS: $GPGSA,A,1,,,,,,,,,,,,,,,*1E
GPS: $GPGSV,1,1,01,22,,,39*72
GPS: $GPRMC,002921.000,V,,,,,,,101010,,,N*44
GPS: $GPVTG,,T,,M,,N,,K,N*2C
GPS: 
GPS: $GPGGA,002922.000,,,,,0,0,,,M,,M,,*43
GPS: $GPGLL,,,,,002922.000,V,
GPS: 
GPS: 
GPS: 
GPS: 
GPS: 
GPS: $GPGGA,002923.000,,,,,0,0,,,M,,M,,*42
GPS: $GPGLL,,,,,002923.000,V,N*70
GPS: $GPGSA,A,1,,,,,,,,,,,,,,,*1E
GPS: $GPGSV,1,1,01,22,,,40*7C
GPS: $GPRMC,002923.000,V,,,,,,,101010,,,N*46
GPS: $GPVTG,,T,,M,,N,,K,N*2C
GPS: 
GPS: $GPGGA,002924.000,,,,,0,0,,,M,,M,,*45
GPS: $GPGLL,,,,,002924.000,V,N*77
GPS: $GPGSA,A,1,,,,,,,,,,,,,,,*1E
GPS: $GPGSV,1,1,01,22,,,40*7C
GPS: $GPRMC,002924.000,V,,,,,,,101010,,,N*41
GPS: $GPVTG,,T,,M,,N,,K,N*2C
GPS: 
GPS: $GPGGA,002925.000,,,,,0,0,,,M,,M,,*44
GPS: $GPGLL,,,,,002925.000,V,N*76
GPS: $GPGSA,A,1,,,,,,,,,,,,,,,*1E
GPS: $GPGSV,1,1,01,22,,,40*7C
GPS: $GPRMC,002925.000,V,,,,,,,101010,,,N*40
GPS: $GPVTG,,T,,M,,N,,K,N*2C
GPS: 
GPS: $GPGGA,002926.000,,,,,0,0,,,M,,M,,*47
GPS: $GPGLL,,,,,002926.000,V,
GPS: 
GPS: 
GPS: 
GPS: 
GPS: 
GPS: $GPGGA,002927.000,,,,,0,0,,,M,,M,,*46
GPS: $GPGLL,,,,,002927.000,V,N*74
GPS: $GPGSA,A,1,,,,,,,,,,,,,,,*1E
GPS: $GPGSV,1,1,01,22,,,40*7C
GPS: $GPRMC,002927.000,V,,,,,,,101010,,,N*42
GPS: $GPVTG,,T,,M,,N,,K,N*2C
GPS: 
GPS: $GPGGA,002928.000,,,,,0,0,,,M,,M,,*49
GPS: $GPGLL,,,,,002928.000,V,N*7B
GPS: $GPGSA,A,1,,,,,,,,,,,,,,,*1E
GPS: $GPGSV,1,1,01,22,,,40*7C
GPS: $GPRMC,002928.000,V,,,,,,,101010,,,N*4D
GPS: $GPVTG,,T,,M,,N,,K,N*2C
GPS: 
GPS: $GPGGA,002929.000,,,,,0,0,,,M,,M,,*48
GPS: $GPGLL,,,,,002929.000,V,N*7A
GPS: $GPGSA,A,1,,,,,,,,,,,,,,,*1E
GPS: $GPGSV,1,1,01,22,,,40*7C
GPS: $GPRMC,002929.000,V,,,,,,,101010,,,N*4C
GPS: $GPVTG,,T,,M,,N,,K,N*2C
GPS: 
GPS: $GPGGA,002930.000,,,,,0,0,,,M,,M,,*40
GPS: $GPGLL,,,,,002930.000,V,
GPS: 
GPS: 
GPS: 
GPS: 
GPS: 
GPS: $GPGGA,002931.000,,,,,0,0,,,M,,M,,*41
GPS: $GPGLL,,,,,002931.000,V,N*73
GPS: $GPGSA,A,1,,,,,,,,,,,,,,,*1E
GPS: $GPGSV,1,1,01,22,,,39*72
GPS: $GPRMC,002931.000,V,,,,,,,101010,,,N*45
GPS: $GPVTG,,T,,M,,N,,K,N*2C
GPS: 
GPS: $GPGGA,002932.000,,,,,0,0,,,M,,M,,*42
GPS: $GPGLL,,,,,002932.000,V,N*70
GPS: $GPGSA,A,1,,,,,,,,,,,,,,,*1E
GPS: $GPGSV,1,1,01,22,,,40*7C
GPS: $GPRMC,002932.000,V,,,,,,,101010,,,N*46
GPS: $GPVTG,,T,,M,,N,,K,N*2C
GPS: 
GPS: $GPGGA,231316.717,,,,,0,0,,,M,,M,,*4D
GPS: $GPGLL,,,,,231316.717,V,N*7F
GPS: $GPGSA,A,1,,,,,,,,,,,,,,,*1E
GPS: $GPGSV,1,1,01,22,,,40*7C
GPS: $GPRMC,231316.717,V,,,,,,,161010,,,N*4F
GPS: $GPVTG,,T,,M,,N,,K,N*2C
GPS: 
GPS: $GPGGA,231317.717,,,,,0,0,,,M,,M,,*4C
GPS: $GPGLL,,,,,231317.717,V,N*7E
GPS: $GPGSA,A,1,,,,,,,,,,,,,,,*1E
GPS: $GPGSV,1,1,01,22,,,39*72
GPS: $GPRMC,231317.717,V,,,,,,,161010,,,N*4E
GPS: $GPVTG,,T,,M,,N,,K,N*2C
GPS: 
GPS: $GPGGA,231318.717,,,,,0,0,,,M,,M,,*43
GPS: $GPGLL,,,,,231318.717,V,N*71
GPS: $GPGSA,A,1,,,,,,,,,,,,,,,*1E
GPS: $GPGSV,1,1,01,22,,,40*7C
GPS: $GPRMC,231318.717,V,,,,,,,161010,,,N*41
GPS: $GPVTG,,T,,M,,N,,K,N*2C
GPS: 
GPS: $GPGGA,231319.717,,,,,0,0,,,M,,M,,*42
GPS: $GPGLL,,,,,231319.717,V,N*70
GPS: $GPGSA,A,1,,,,,,,,,,,,,,,*1E
GPS: $GPGSV,1,1,01,22,,,39*72
GPS: $GPRMC,231319.717,V,,,,,,,161010,,,N*40
GPS: $GPVTG,,T,,M,,N,,K,N*2C
GPS: 
GPS: $GPGGA,231320.717,,,,,0,0,,,M,,M,,*48
GPS: $GPGLL,,,,,231320.717,V,N*7A
GPS: $GPGSA,A,1,,,,,,,,,,,,,,,*1E
GPS: $GPGSV,1,1,01,22,,,40*7C
GPS: $GPRMC,231320.717,V,,,,,,,161010,,,N*4A
GPS: $GPVTG,,T,,M,,N,,K,N*2C
GPS: 
GPS: $GPGGA,231321.717,,,,,0,0,,,M,,M,,*49
GPS: $GPGLL,,,,,231321.717,V,
GPS: 
GPS: 
GPS: 
GPS: 
GPS: 
GPS: $GPGGA,231322.717,,,,,0,0,,,M,,M,,*4A
GPS: $GPGLL,,,,,231322.717,V,N*78
GPS: $GPGSA,A,1,,,,,,,,,,,,,,,*1E
GPS: $GPGSV,1,1,01,22,,,40*7C
GPS: $GPRMC,231322.717,V,,,,,,,161010,,,N*48
GPS: $GPVTG,,T,,M,,N,,K,N*2C
GPS: 
GPS: $GPGGA,231323.717,,,,,0,0,,,M,,M,,*4B
GPS: $GPGLL,,,,,231323.717,V,N*79
GPS: $GPGSA,A,1,,,,,,,,,,,,,,,*1E
GPS: $GPGSV,1,1,02,19,,,34,22,,,39*7E
GPS: $GPRMC,231323.717,V,,,,,,,161010,,,N*49
GPS: $GPVTG,,T,,M,,N,,K,N*2C
GPS: 
GPS: $GPGGA,231324.717,,,,,0,0,,,M,,M,,*4C
GPS: $GPGLL,,,,,231324.717,V,N*7E
GPS: $GPGSA,A,1,,,,,,,,,,,,,,,*1E
GPS: $GPGSV,1,1,02,19,,,35,22,,,39*7F
GPS: $GPRMC,231324.717,V,,,,,,,161010,,,N*4E
GPS: $GPVTG,,T,,M,,N,,K,N*2C
GPS: 
GPS: $GPGGA,231325.717,,,,,0,0,,,M,,M,,*4D
GPS: $GPGLL,,,,,231325.717,V,N*7F
GPS: $GPGSA,A,1,,,,,,,,,,,,,,,*1E
GPS: $GPGSV,1,1,02,19,,,35,22,,,40*71
GPS: $GPRMC,231325.717,V,,,,,,,161010,,,N*4F
GPS: $GPVTG,,T,,M,,N,,K,N*2C
GPS: 
GPS: $GPGGA,231326.717,,,,,0,0,,,M,,M,,*4E
GPS: $GPGLL,,,,,23132
GPS: 
GPS: 
GPS: 
GPS: 
GPS: 
GPS: $GPGGA,231327.717,,,,,0,0,,,M,,M,,*4F
GPS: $GPGLL,,,,,231327.717,V,N*7D
GPS: $GPGSA,A,1,,,,,,,,,,,,,,,*1E
GPS: $GPGSV,1,1,02,19,,,33,22,,,39*79
GPS: $GPRMC,231327.717,V,,,,,,,161010,,,N*4D
GPS: $GPVTG,,T,,M,,N,,K,N*2C
GPS: 
GPS: $GPGGA,231328.717,,,,,0,0,,,M,,M,,*40
GPS: $GPGLL,,,,,231328.717,V,N*72
GPS: $GPGSA,A,1,,,,,,,,,,,,,,,*1E
GPS: $GPGSV,1,1,02,19,,,35,22,,,39*7F
GPS: $GPRMC,231328.717,V,,,,,,,161010,,,N*42
GPS: $GPVTG,,T,,M,,N,,K,N*2C
GPS: 
GPS: $GPGGA,231329.717,,,,,0,0,,,M,,M,,*41
GPS: $GPGLL,,,,,231329.717,V,N*73
GPS: $GPGSA,A,1,,,,,,,,,,,,,,,*1E
GPS: $GPGSV,1,1,03,07,,,30,19,,,33,22,,,38*7D
GPS: $GPRMC,231329.717,V,,,,,,,161010,,,N*43
GPS: $GPVTG,,T,,M,,N,,K,N*2C
GPS: 
GPS: $GPGGA,231330.717,,,,,0,0,,,M,,M,,*49
GPS: $GPGLL,,
GPS: 
GPS: 
GPS: 
GPS: 
GPS: 
GPS: $GPGGA,231331.717,,,,,0,0,,,M,,M,,*48
GPS: $GPGLL,,,,,231331.717,V,N*7A
GPS: $GPGSA,A,1,,,,,,,,,,,,,,,*1E
GPS: $GPGSV,1,1,03,07,,,29,19,,,35,22,,,39*72
GPS: $GPRMC,231331.717,V,,,,,,,161010,,,N*4A
GPS: $GPVTG,,T,,M,,N,,K,N*2C
GPS: 
GPS: $GPGGA,231332.717,,,,,0,0,,,M,,M,,*4B
GPS: $GPGLL,,,,,231332.717,V,N*79
GPS: $GPGSA,A,1,,,,,,,,,,,,,,,*1E
GPS: $GPGSV,1,1,03,07,,,30,19,,,36,22,,,39*79
GPS: $GPRMC,231332.717,V,,,,,,,161010,,,N*49
GPS: $GPVTG,,T,,M,,N,,K,N*2C
GPS: 
GPS: $GPGGA,231333.717,,,,,0,0,,,M,,M,,*4A
GPS: $GPGLL,,,,,231333.717,V,N*78
GPS: $GPGSA,A,1,,,,,,,,,,,,,,,*1E
GPS: $GPGSV,1,1,04,07,,,28,08,,,34,19,,,36,22,,,38*79
GPS: $GPRMC,231333.717,V,,,,,,,161010,,,N*48
GPS: $GPVTG,,T,,M,,N,,K,N*2C
GPS: 
GPS: $GPGGA,231334.717,,,,,0,0,,,M,,M,,*4D
GPS: $GPGLL,,,,,231334.717,V,N*7F
GPS: $GPGSA,A,1,,,,,,,,,,,,,,,*1E
GPS: $GPGSV,1,1,04,07,,,30,08,,,36,19,,,36,22,,,38*72
GPS: $GPRMC,231334.717,V,,,,,,,161010,,,N*4F
GPS: $GPVTG,,T,,M,,N,,K,N*2C
GPS: 
GPS: $GPGGA,231335.717,,,,,0,0,,,M,,M,,*4C
GPS: 
GPS: 
GPS: 
GPS: 
GPS: 
GPS: 
GPS: $GPGGA,231336.717,,,,,0,0,,,M,,M,,*4F
GPS: $GPGLL,,,,,231336.717,V,N*7D
GPS: $GPGSA,A,1,,,,,,,,,,,,,,,*1E
GPS: $GPGSV,1,1,04,07,,,33,08,,,37,19,,,36,22,,,38*70
GPS: $GPRMC,231336.717,V,,,,,,,161010,,,N*4D
GPS: $GPVTG,,T,,M,,N,,K,N*2C
GPS: 
GPS: $GPGGA,231337.717,,,,,0,0,,,M,,M,,*4E
GPS: $GPGLL,,,,,231337.717,V,N*7C
GPS: $GPGSA,A,1,,,,,,,,,,,,,,,*1E
GPS: $GPGSV,1,1,04,07,,,30,08,,,36,19,,,36,22,,,37*7D
GPS: $GPRMC,231337.717,V,,,,,,,161010,,,N*4C
GPS: $GPVTG,,T,,M,,N,,K,N*2C
GPS: 
GPS: $GPGGA,231338.717,,,,,0,0,,,M,,M,,*41
GPS: $GPGLL,,,,,231338.717,V,N*73
GPS: $GPGSA,A,1,,,,,,,,,,,,,,,*1E
GPS: $GPGSV,2,1,05,06,,,37,07,,,31,08,,,38,19,,,37*77
GPS: $GPGSV,2,2,05,22,,,38*77
GPS: $GPRMC,231338.717,V,,,,,,,161010,,,N*43
GPS: $GPVTG,,T,,M,,N,,K,N*2C
GPS: 
GPS: $GPGGA,231338
GPS: 
GPS: 
GPS: 
GPS: 
GPS: 
GPS: 
GPS: 
GPS: $GPGGA,231339.717,,,,,0,0,,,M,,M,,*40
GPS: $GPGLL,,,,,231339.717,V,N*72
GPS: $GPGSA,A,1,,,,,,,,,,,,,,,*1E
GPS: $GPGSV,2,1,05,06,,,37,07,,,30,08,,,38,19,,,36*77
GPS: $GPGSV,2,2,05,22,,,38*77
GPS: $GPRMC,231339.717,V,,,,,,,161010,,,N*42
GPS: $GPVTG,,T,,M,,N,,K,N*2C
GPS: 
GPS: $GPGGA,231340.717,,,,,0,0,,,M,,M,,*4E
GPS: $GPGLL,,,,,231340.717,V,N*7C
GPS: $GPGSA,A,1,,,,,,,,,,,,,,,*1E
GPS: $GPGSV,2,1,05,06,,,40,07,,,31,08,,,37,19,,,37*78
GPS: $GPGSV,2,2,05,22,,,37*78
GPS: $GPRMC,231340.717,V,,,,,,,161010,,,N*4C
GPS: $GPVTG,,T,,M,,N,,K,N*2C
GPS: 
GPS: $GPGGA,231341C,231341.717,V,,,,,,,161010,,,N*4D
GPS: $GPT,,M,,N,,K,N*2C
GPS: 
GPS: 
GPS: 
GPS: 
GPS: 
GPS: 
GPS: $GPGGA,231342.717,,,,,0,0,,,M,,M,,*4C
GPS: $GPGLL,,,,,231342.717,V,N*7E
GPS: $GPGSA,A,1,,,,,,,,,,,,,,,*1E
GPS: $GPGSV,2,1,05,06,,,39,07,,,33,08,,,36,19,,,36*74
GPS: $GPGSV,2,2,05,22,,,37*78
GPS: $GPRMC,231342.717,V,,,,,,,161010,,,N*4E
GPS: $GPVTG,,T,,M,,N,,K,N*2C
GPS: 
GPS: $GPGGA,231343.717,,,,,0,0,,,M,,M,,*4D
GPS: $GPGLL,,,,,231343.717,V,N*7F
GPS: $GPGSA,A,1,,,,,,,,,,,,,,,*1E
GPS: $GPGSV,2,1,05,06,,,39,07,,,32,08,,,37,19,,,36*74
GPS: $GPGSV,2,2,05,22,,,38*77
GPS: $GPRMC,231343.717,V,,,,,,,161010,,,N*4F
GPS: $GPVTG,,T,,M,,N,,K,N*2C
GPS: 
GPS: $GPGGA,231344.717,,,,,0,0,,,M,,M,,*4A
GPS: $GPGLL,,,,,231344.717,V,N*78
GPS: $GPGSA,A,1,,,,,,,,,,,,,,,*1E
GPS: $GPGSV,2,1,05,06,,,39,07,,,32,08,,,37,19,,,35*77
GPS: $GPGSV,2,2,05,22,,,37*78
GPS: $GPRMC,231344.717,V,,,,,,,161010,,,N*48
GPS: $GPVTG,,T,,M,,N,,K,N*2C
GPS: 
GPS: $GPGGA,23134522,,,37*78
GPS: $GPRMC,231345.717,V,,,,,,,10,,,N*49
GPS: $GPVTG,,T,,M,,N,,K,N
GPS: 
GPS: 
GPS: 
GPS: 
GPS: 
GPS: $GPGGA,231346.717,,,,,0,0,,,M,,M,,*48
GPS: $GPGLL,,,,,231346.717,V,N*7A
GPS: $GPGSA,A,1,,,,,,,,,,,,,,,*1E
GPS: $GPGSV,2,1,05,06,,,39,07,,,31,08,,,38,19,,,36*78
GPS: $GPGSV,2,2,05,22,,,37*78
GPS: $GPRMC,231346.717,V,,,,,,,161010,,,N*4A
GPS: $GPVTG,,T,,M,,N,,K,N*2C
GPS: 
GPS: $GPGGA,231347.717,,,,,0,0,,,M,,M,,*49
GPS: $GPGLL,,,,,231347.717,V,N*7B
GPS: $GPGSA,A,1,,,,,,,,,,,,,,,*1E
GPS: $GPGSV,2,1,05,06,,,39,07,,,31,08,,,38,19,,,37*79
GPS: $GPGSV,2,2,05,22,,,37*78
GPS: $GPRMC,231347.717,V,,,,,,,161010,,,N*4B
GPS: $GPVTG,,T,,M,,N,,K,N*2C
GPS: 
GPS: $GPGGA,231348.717,,,,,0,0,,,M,,M,,*46
GPS: $GPGLL,,,,,231348.717,V,N*74
GPS: $GPGSA,A,1,,,,,,,,,,,,,,,*1E
GPS: $GPGSV,2,1,05,06,,,39,07,,,30,08,,,38,19,,,36*79
GPS: $GPGSV,2,2,05,22,,,37*78
GPS: $GPRMC,231348.717,V,,,,,,,161010,,,N*44
GPS: $GPVTG,,T,,M,,N,,K,N*2C
GPS: 
GPS: $GPGGA,231349.717,,,,,0,0,,,M,,M,,*47
GPS: $GPGLL,,,,,231349.717,V,N*75
GPS: $GPGSA,A,1,,,,,,,,,,,,,,,*1E
GPS: $GPGSV,2,1,05,06,,,38,07,,,30,08,,,38,19,,,36*78
GPS: $GPGSV,2,2,05,22,,,37*78
GPS: $GPRMC,231349.717,V,,,,,,,161010,,,N*45
GPS: $GPVTG,,T,,M,,N,,K,N*2C
GPS: 
GPS: $GPGGA,231350
GPS: 
GPS: 
GPS: 
GPS: 
GPS: 
GPS: 
GPS: 
GPS: $GPGGA,231351.717,,,,,0,0,,,M,,M,,*4E
GPS: $GPGLL,,,,,231351.717,V,N*7C
GPS: $GPGSA,A,1,,,,,,,,,,,,,,,*1E
GPS: $GPGSV,2,1,05,06,,,39,07,,,31,08,,,39,19,,,36*79
GPS: $GPGSV,2,2,05,22,,,37*78
GPS: $GPRMC,231351.717,V,,,,,,,161010,,,N*4C
GPS: $GPVTG,,T,,M,,N,,K,N*2C
GPS: 
GPS: $GPGGA,231352.717,,,,,0,0,,,M,,M,,*4D
GPS: $GPGLL,,,,,231352.717,V,N*7F
GPS: $GPGSA,A,1,,,,,,,,,,,,,,,*1E
GPS: $GPGSV,2,1,05,06,,,39,07,,,31,08,,,39,19,,,37*78
GPS: $GPGSV,2,2,05,22,,,37*78
GPS: $GPRMC,231352.717,V,,,,,,,161010,,,N*4F
GPS: $GPVTG,,T,,M,,N,,K,N*2C
GPS: 
GPS: $GPGGA,231353.717,,,,,0,0,,,M,,M,,*4C
GPS: $GPGLL,,,,,231353.717,V,N*7E
GPS: $GPGSA,A,1,,,,,,,,,,,,,,,*1E
GPS: $GPGSV,2,1,05,06,,,39,07,,,31,08,,,39,19,,,36*79
GPS: $GPGSV,2,2,05,22,,,37*78
GPS: $GPRMC,231353.717,V,,,,,,,161010,,,N*4E
GPS: $GPVTG,,T,,M,,N,,K,N*2C
GPS: 
GPS: $GPGGA,231354
GPS: 
GPS: 
GPS: 
GPS: 
GPS: 
GPS: 
GPS: 
GPS: $GPGGA,231355.717,,,,,0,0,,,M,,M,,*4A
GPS: $GPGLL,,,,,231355.717,V,N*78
GPS: $GPGSA,A,1,,,,,,,,,,,,,,,*1E
GPS: $GPGSV,2,1,05,06,,,39,07,,,30,08,,,40,19,,,36*76
GPS: $GPGSV,2,2,05,22,,,37*78
GPS: $GPRMC,231355.717,V,,,,,,,161010,,,N*48
GPS: $GPVTG,,T,,M,,N,,K,N*2C
GPS: 
GPS: $GPGGA,231356.717,,,,,0,0,,,M,,M,,*49
GPS: $GPGLL,,,,,231356.717,V,N*7B
GPS: $GPGSA,A,1,,,,,,,,,,,,,,,*1E
GPS: $GPGSV,2,1,05,06,,,38,07,,,31,08,,,39,19,,,36*78
GPS: $GPGSV,2,2,05,22,,,37*78
GPS: $GPRMC,231356.717,V,,,,,,,161010,,,N*4B
GPS: $GPVTG,,T,,M,,N,,K,N*2C
GPS: 
GPS: $GPGGA,231357.717,,,,,0,0,,,M,,M,,*48
GPS: $GPGLL,,,,,231357.717,V,N*7A
GPS: $GPGSA,A,1,,,,,,,,,,,,,,,*1E
GPS: $GPGSV,2,1,05,06,,,39,07,,,32,08,,,40,19,,,36*74
GPS: $GPGSV,2,2,05,22,,,37*78
GPS: $GPRMC,231357.717,V,,,,,,,161010,,,N*4A
GPS: $GPVTG,,T,,M,,N,,K,N*2C
GPS: 
GPS: $GPGGA,231358.717,,,,,0,0,,,M,,M,,*47
GPS: $GPGLL,,,,,231358.717,V,N*75
GPS: $GPGSA,A,1,,,,,,,,,,,,,,,*1E
GPS: $GPGSV,2,1,05,06,,,39,07,,,32,08,,,39,19,,,35*79
GPS: $GPGSV,2,2,05,22,,,36*79
GPS: $GPRMC,231358.717,V,,,,,,,161010,,,N*45
GPS: $GPVTG,,T,,M,,N,,K,N*2C
GPS: 
GPS: $GPGGA,231359.717,,,,,0,0,,,M,,M,,*46
GPS: $GPGLL,,,,,231359.717,V,N*74
GPS: $GPGSA,A,1,,,,,,,,,,,,,,,*1E
GPS: $GPGSV,2,1,05,06,,,39,07,,,31,08,,,40,19,,,35*74
GPS: $GPGSV,2,2,05,22,,,37*78
GPS: $GPRMC,231359.717,V,,,,,,,161010,,,N*44
GPS: $GPVTG,,T,,M,,N,,K,N*2C
GPS: 
GPS: $GPGGA,231400.717,,,,,0,0,,,M,,M,,*4D
GPS: $GPGLL,,,,,231400.717,V,N*7F
GPS: $GPGSA,A,1,,,,,,,,,,,,,,,*1E
GPS: $GPGSV,2,1,05,06,,,39,07,,,33,08,,,40,19,,,36*75
GPS: $GPGSV,2,2,05,22,,,36*79
GPS: $GPRMC,231400.717,V,,,,,,,161010,,,N*4F
GPS: $GPVTG,,T,,M,,N,,K,N*2C
GPS: 
GPS: $GPGGA,231401.717,,,,,0,0,,,M,,M,,*4C
GPS: $GPGLL,,,,,231401.717,V,N*7E
GPS: $GPGSA,A,1,,,,,,,,,,,,,,,*1E
GPS: $GPGSV,2,1,05,06,,,39,07,,,32,08,,,40,19,,,35*77
GPS: $GPGSV,2,2,05,22,,,37*78
GPS: $GPRMC,231401.717,V,,,,,,,161010,,,N*4E
GPS: $GPVTG,,T,,M,,N,,K,N*2C
GPS: 
GPS: $GPGGA,231402.717,6500.713621,N,02530.969148,E,1,4,2.78,38.501,M,21.545,M,,*66
GPS: $GPGLL,6500.713621,N,02530.969148,E,231402.717,A,A*52
GPS: $GPGSA,A,2,06,19,22,08,,,,,,,,,4.41,2.78,3.42*0C
GPS: $GPGSV,2,1,05,06,66,221,39,19,39,286,36,22,35,179,36,08,21,341,40*7C
GPS: $
GPS: 
GPS: 
GPS: 
GPS: 
GPS: 
GPS: 
GPS: 
GPS: 
GPS: 
GPS: 
GPS: 
GPS: 
GPS: 
GPS: $GPGGA,231404.917,6500.711814,N,02530.967033,E,1,4,2.79,32.831,M,21.545,M,,*62
GPS: $GPGLL,6500.711814,N,02530.967033,E,231404.917,A,A*53
GPS: $GPGSA,A,3,06,19,22,08,,,,,,,,,4.42,2.79,3.43*0E
GPS: $GPGSV,2,1,05,06,66,221,39,19,39,286,35,22,35,179,36,08,21,341,41*7E
GPS: $
GPS: 
GPS: 
GPS: 
GPS: 
GPS: $GPGGA,231406.000,6500.711645,N,02530.967047,E,1,4,2.79,30.976,M,21.545,M,,*66
GPS: $GPGLL,6500.711645,N,02530.967047,E,231406.000,A,A*57
GPS: $GPGSA,A,3,06,19,22,08,,,,,,,,,4.42,2.79,3.43*0E
GPS: $GPGSV,2,1,05,06,66,221,39,19,39,286,35,22,35,179,36,08,21,341,41*7E
GPS: $
GPS: 
GPS: 
GPS: 
GPS: 
GPS: $GPGGA,231407.000,6500.711787,N,02530.967234,E,1,4,2.79,31.620,M,21.545,M,,*63
GPS: $GPGLL,6500.711787,N,02530.967234,E,231407.000,A,A*5F
GPS: $GPGSA,A,3,06,19,22,08,,,,,,,,,4.42,2.79,3.43*0E
GPS: $GPGSV,2,1,05,06,66,221,39,19,39,286,35,22,35,179,37,08,21,341,41*7F
GPS: $
GPS: 
GPS: 
GPS: 
GPS: 
GPS: $GPGGA,231408.000,6500.711940,N,02530.966502,E,1,4,2.79,31.724,M,21.545,M,,*6F
GPS: $GPGLL,6500.711940,N,02530.966502,E,231408.000,A,A*56
GPS: $GPGSA,A,3,06,19,22,08,,,,,,,,,4.42,2.79,3.43*0E
GPS: $GPGSV,2,1,05,06,66,221,40,19,39,286,35,22,35,179,37,08,21,341,41*71
GPS: $
GPS: 
GPS: 
GPS: 
GPS: 
GPS: 
GPS: 
GPS: 
GPS: 
GPS: 
GPS: 
GPS: 
GPS: 
GPS: 
GPS: $GPGGA,231410.000,6500.712111,N,02530.963844,E,1,4,2.79,32.024,M,21.545,M,,*67
GPS: $GPGLL,6500.712111,N,02530.963844,E,231410.000,A,A*5A
GPS: $GPGSA,A,3,06,19,22,08,,,,,,,,,4.42,2.79,3.43*0E
GPS: $GPGSV,2,1,05,06,66,221,40,19,39,286,34,22,35,179,37,08,21,341,41*70
GPS: $
GPS: 
GPS: 
GPS: 
GPS: 
GPS: $GPGGA,231411.000,6500.712245,N,02530.963523,E,1,4,2.79,32.919,M,21.545,M,,*6F
GPS: $GPGLL,6500.712245,N,02530.963523,E,231411.000,A,A*55
GPS: $GPGSA,A,3,06,19,22,08,,,,,,,,,4.43,2.79,3.43*0F
GPS: $GPGSV,2,1,05,06,66,221,39,19,39,286,35,22,35,179,37,08,21,341,42*7C
GPS: $
GPS: 
GPS: 
GPS: 
GPS: 
GPS: $GPGGA,231412.000,6500.712381,N,02530.963246,E,1,4,2.79,34.464,M,21.545,M,,*60
GPS: $GPGLL,6500.712381,N,02530.963246,E,231412.000,A,A*5B
GPS: $GPGSA,A,3,06,19,22,08,,,,,,,,,4.43,2.79,3.44*08
GPS: $GPGSV,2,1,05,06,66,221,40,19,39,286,35,22,35,179,37,08,21,341,41*71
GPS: $
GPS: 
GPS: 
GPS: 
GPS: 
GPS: 
GPS: 
GPS: 
GPS: 
GPS: 
GPS: 
GPS: 
GPS: 
GPS: 
GPS: $GPGGA,231414.000,6500.712543,N,02530.962065,E,1,4,2.79,35.582,M,21.545,M,,*64
GPS: $GPGLL,6500.712543,N,02530.962065,E,231414.000,A,A*57
GPS: $GPGSA,A,3,06,19,22,08,,,,,,,,,4.43,2.79,3.44*08
GPS: $GPGSV,2,1,05,06,66,221,40,19,39,286,34,22,35,179,37,08,21,341,41*70
GPS: $
GPS: 
GPS: 
GPS: 
GPS: 
GPS: $GPGGA,231415.000,6500.712492,N,02530.960544,E,1,4,2.80,36.004,M,21.545,M,,*62
GPS: $GPGLL,6500.712492,N,02530.960544,E,231415.000,A,A*5F
GPS: $GPGSA,A,3,06,19,22,08,,,,,,,,,4.43,2.80,3.44*0E
GPS: $GPGSV,2,1,05,06,66,221,39,19,39,286,34,22,35,179,36,08,21,341,42*7C
GPS: $
GPS: 
GPS: 
GPS: 
GPS: 
GPS: $GPGGA,231416.000,6500.712522,N,02530.959658,E,1,4,2.80,36.733,M,21.545,M,,*6C
GPS: $GPGLL,6500.712522,N,02530.959658,E,231416.000,A,A*52
GPS: $GPGSA,A,3,06,19,22,08,,,,,,,,,4.43,2.80,3.44*0E
GPS: $GPGSV,2,1,05,06,66,221,39,19,39,286,33,22,35,179,36,08,21,341,41*78
GPS: $$GPGGA,231417.000,6500.712522,N,02530.959658,E,1,4,2.80,36.733,M,21.545,
GPS: M,,*6D
GPS: $GPGLL,6500.712522,N,02530.959658,E,231417.000,A,A*53
GPS: $GPGSA,A,3,06,19,22,08,,,,,,,,,4.43,2.80,3.44*0E
GPS: $GPGSV,2,1,05,06,66,221,39,19,39,286,33,22,35,179,35,08,21,341,41*7B
GPS: $GPGSV,2,2,05,07,,,26*7F
GPS: $GPRMC,231417.000,A,6500.712522,N,02530.959658,E,0.000,0.0,040513,,,A*67
GPS: $GPVTG,0.0,T,,M,0.000,N,0.000,K,A*0D
GPS: $GPZDA,231417.000,04,05,2013,,*55
GPS: 
GPS: 
GPS: 
GPS: 
GPS: 
GPS: $GPGGA,231418.000,6500.712522,N,02530.959658,E,1,4,2.80,36.733,M,21.545,M,,*62
GPS: $GPGLL,6500.712522,N,02530.959658,E,231418.000,A,A*5C
GPS: $GPGSA,A,3,06,19,22,08,,,,,,,,,4.44,2.80,3.44*09
GPS: $GPGSV,2,1,05,06,66,221,39,19,39,286,33,22,35,179,35,08,21,341,41*7B
GPS: $
GPS: 
GPS: 
GPS: 
GPS: 
GPS: $GPGGA,231419.000,6500.712522,N,02530.959658,E,1,4,2.80,36.733,M,21.545,M,,*63
GPS: $GPGLL,6500.712522,N,02530.959658,E,231419.000,A,A*5D
GPS: $GPGSA,A,3,06,19,22,08,,,,,,,,,4.44,2.80,3.45*08
GPS: $GPGSV,2,1,05,06,66,221,40,19,39,286,33,22,35,179,35,08,21,341,41*75
GPS: $
GPS: 
GPS: 
GPS: 
GPS: 
GSM: 
GSM: UNDER-VOLTAGE WARNNING
GPS: $GPGGA,231420.000,6500.712522,N,02530.959658,E,1,4,2.80,36.733,M,21.545,M,,*69
GPS: $GPGLL,6500.712522,N,02530.959658,E,231420.000,A,A*57
GPS: $GPGSA,A,3,06,19,22,08,,,,,,,,,4.44,2.80,3.44*09
GPS: $GPGSV,2,1,05,06,66,221,39,19,39,286,32,22,35,179,34,08,21,341,40*7A
GPS: $
GPS: 
GPS: 
GPS: 
GPS: 
GPS: $GPGGA,231421.000,6500.712522,N,02530.959658,E,1,4,2.80,36.733,M,21.545,M,,*68
GPS: $GPGLL,6500.712522,N,02530.959658,E,231421.000,A,A*56
GPS: $GPGSA,A,3,06,19,22,08,,,,,,,,,4.44,2.80,3.45*08
GPS: $GPGSV,2,1,06,06,66,221,39,19,39,286,32,22,35,179,34,08,21,341,41*78
GPS: $
GPS: 
GPS: 
GPS: 
GPS: 
GPS: 
GPS: 
GPS: 
GPS: 
GPS: 
GPS: 
GPS: 
GPS: 
GPS: 
GPS: $GPGGA,231423.000,6500.712522,N,02530.959658,E,1,4,2.80,36.733,M,21.545,M,,*6A
GPS: $GPGLL,6500.712522,N,02530.959658,E,231423.000,A,A*54
GPS: $GPGSA,A,3,06,19,22,08,,,,,,,,,4.44,2.80,3.45*08
GPS: $GPGSV,2,1,06,06,66,221,39,19,39,286,32,22,35,179,32,08,21,341,41*7E
GPS: $
GPS: 
GPS: 
GPS: 
GPS: 
GPS: $GPGGA,231424.000,6500.712522,N,02530.959658,E,1,4,2.81,36.733,M,21.545,M,,*6C
GPS: $GPGLL,6500.712522,N,02530.959658,E,231424.000,A,A*53
GPS: $GPGSA,A,3,06,19,22,08,,,,,,,,,4.45,2.81,3.45*08
GPS: $GPGSV,2,1,06,06,66,221,39,19,39,286,32,22,35,179,32,08,21,341,41*7E
GPS: $
GPS: 
GPS: 
GPS: 
GPS: 
GPS: $GPGGA,231425.000,6500.712522,N,02530.959658,E,1,4,2.80,36.733,M,21.545,M,,*6C
GPS: $GPGLL,6500.712522,N,02530.959658,E,231425.000,A,A*52
GPS: $GPGSA,A,3,06,19,22,08,,,,,,,,,4.45,2.80,3.45*09
GPS: $GPGSV,2,1,06,06,66,221,39,19,39,286,31,22,35,179,32,08,21,341,41*7D
GPS: $
GPS: 
GPS: 
GPS: 
GPS: 
GSM: 
GSM: UNDER-VOLTAGE WARNNING
GPS: 
GPS: 
GPS: 
GPS: 
GPS: 
GPS: 
GPS: 
GPS: 
GPS: 
GPS: $GPGGA,231427.000,6500.712522,N,02530.959658,E,1,4,2.81,36.733,M,21.545,M,,*6F
GPS: $GPGLL,6500.712522,N,02530.959658,E,231427.000,A,A*50
GPS: $GPGSA,A,3,06,19,22,08,,,,,,,,,4.45,2.81,3.45*08
GPS: $GPGSV,2,1,06,06,66,221,39,19,39,286,31,22,35,179,31,08,21,341,42*7D
GPS: $
GPS: 
GPS: 
GPS: 
GPS: 
GPS: $GPGGA,231428.000,6500.712522,N,02530.959658,E,1,4,2.81,36.733,M,21.545,M,,*60
GPS: $GPGLL,6500.712522,N,02530.959658,E,231428.000,A,A*5F
GPS: $GPGSA,A,3,06,19,22,08,,,,,,,,,4.45,2.81,3.45*08
GPS: $GPGSV,2,1,06,06,66,221,39,19,39,286,31,22,35,179,30,08,21,341,41*7F
GPS: $
GPS: 
GPS: 
GPS: 
GPS: 
GPS: $GPGGA,231429.000,6500.712522,N,02530.959658,E,1,4,2.81,36.733,M,21.545,M,,*61
GPS: $GPGLL,6500.712522,N,02530.959658,E,231429.000,A,A*5E
GPS: $GPGSA,A,3,06,19,22,08,,,,,,,,,4.45,2.81,3.45*08
GPS: $GPGSV,2,1,06,06,66,221,39,19,39,286,30,22,35,179,29,08,21,341,41*76
GPS: $
GPS: 
GPS: 
GPS: 
GPS: 
GPS: 
GPS: 
GPS: 
GPS: 
GPS: 
GPS: 
GPS: 
GPS: 
GPS: 
GPS: $GPGGA,231431.000,6500.712522,N,02530.959658,E,1,4,2.81,36.733,M,21.545,M,,*68
GPS: $GPGLL,6500.712522,N,02530.959658,E,231431.000,A,A*57
GPS: $GPGSA,A,3,06,19,22,08,,,,,,,,,4.45,2.81,3.46*0B
GPS: $GPGSV,2,1,06,06,66,221,39,19,39,286,32,22,35,179,29,08,21,341,41*74
GPS: $
GPS: 
GPS: 
GPS: 
GPS: 
GSM: 
GSM: UNDER-VOLTAGE WARNNING
GPS: $GPGGA,231432.000,6500.712522,N,02530.959658,E,1,4,2.81,36.733,M,21.545,M,,*6B
GPS: $GPGLL,6500.712522,N,02530.959658,E,231432.000,A,A*54
GPS: $GPGSA,A,3,06,19,22,08,,,,,,,,,4.46,2.81,3.46*08
GPS: $GPGSV,2,1,06,06,66,221,40,19,39,286,32,22,35,179,27,08,21,341,41*74
GPS: $
GPS: 
GPS: 
GPS: 
GPS: 
GPS: $GPGGA,231433.000,6500.712522,N,02530.959658,E,1,4,2.81,36.733,M,21.545,M,,*6A
GPS: $GPGLL,6500.712522,N,02530.959658,E,231433.000,A,A*55
GPS: $GPGSA,A,3,06,19,22,08,,,,,,,,,4.46,2.81,3.46*08
GPS: $GPGSV,2,1,06,06,66,221,39,19,39,286,32,22,35,179,27,08,21,341,41*7A
GPS: $
GPS: 
GPS: 
GPS: 
GPS: 
GSM: 
GSM: UNDER-VOLTAGE WARNNING
GPS: $GPGGA,231434.000,6500.712522,N,02530.959658,E,1,4,2.81,36.733,M,21.545,M,,*6D
GPS: $GPGLL,6500.712522,N,02530.959658,E,231434.000,A,A*52
GPS: $GPGSA,A,3,06,19,22,08,,,,,,,,,4.46,2.81,3.46*08
GPS: $GPGSV,2,1,06,06,66,221,39,19,39,286,33,22,35,179,24,08,21,341,41*78
GPS: $
GPS: 
GPS: 
GPS: 
GPS: 
GPS: 
GPS: 
GPS: 
GPS: 
GPS: 
GPS: 
GPS: 
GPS: 
GPS: 
GPS: $GPGGA,231436.000,6500.712522,N,02530.959658,E,1,4,2.81,36.733,M,21.545,M,,*6F
GPS: $GPGLL,6500.712522,N,02530.959658,E,231436.000,A,A*50
GPS: $GPGSA,A,3,06,19,22,08,,,,,,,,,4.46,2.81,3.46*08
GPS: $GPGSV,2,1,06,06,66,221,39,19,39,286,33,22,35,179,23,08,21,341,41*7F
GPS: $
GPS: 
GPS: 
GPS: 
GPS: 
GPS: $GPGGA,231437.000,6500.712522,N,02530.959658,E,1,4,2.82,36.733,M,21.545,M,,*6D
GPS: $GPGLL,6500.712522,N,02530.959658,E,231437.000,A,A*51
GPS: $GPGSA,A,3,06,19,22,08,,,,,,,,,4.46,2.82,3.46*0B
GPS: $GPGSV,2,1,06,06,66,221,39,19,39,286,33,22,35,179,20,08,21,341,40*7D
GPS: $
GPS: 
GPS: 
GPS: 
GPS: 
GPS: 
GPS: 
GPS: 
GPS: 
GPS: 
GPS: 
GPS: 
GPS: 
GPS: 
GPS: $GPGGA,231439.000,6500.712522,N,02530.959658,E,1,4,2.82,36.733,M,21.545,M,,*63
GPS: $GPGLL,6500.712522,N,02530.959658,E,231439.000,A,A*5F
GPS: $GPGSA,A,3,06,19,22,08,,,,,,,,,4.47,2.82,3.47*0B
GPS: $GPGSV,2,1,06,06,66,221,39,19,39,286,33,22,35,179,19,08,21,341,41*76
GPS: $
GPS: 
GPS: 
GPS: 
GPS: 
GSM: 
GSM: UNDER-VOLTAGE WARNNING
GPS: $GPGGA,231440.000,6500.712522,N,02530.959658,E,1,4,2.82,36.733,M,21.545,M,,*6D
GPS: $GPGLL,6500.712522,N,02530.959658,E,231440.000,A,A*51
GPS: $GPGSA,A,3,06,19,22,08,,,,,,,,,4.47,2.82,3.47*0B
GPS: $GPGSV,2,1,06,06,66,221,40,19,39,286,33,22,35,179,19,08,21,341,40*79
GPS: $
GPS: 
GPS: 
GPS: 
GPS: 
GPS: $GPGGA,231441.000,6500.712522,N,02530.959658,E,1,4,2.82,36.733,M,21.545,M,,*6C
GPS: $GPGLL,6500.712522,N,02530.959658,E,231441.000,A,A*50
GPS: $GPGSA,A,3,06,19,22,08,,,,,,,,,4.47,2.82,3.47*0B
GPS: $GPGSV,2,1,06,06,66,221,39,19,39,286,33,22,35,179,18,08,21,341,40*76
GPS: $.82,3.47*0B
GPS: $GPGSV,2,1,06,06,66,221,40,19,39,286,33,22,35,179,18,08,21,341,40*7GSV,2,2,06,07,,,22,16,,,38*74
GPS: $GPRMC,231442.000,A,650022,N,02530.959658,E,0.000,0.0,040513,,,A*67
GPS: $GPVT,T,,M,0.000,N,0.000,K,A*0D
GPS: $GPZDA,231442.000,04,05,2013,,*55
GPS: 
GPS: 
GPS: 
GPS: 
GPS: 
GPS: 
GPS: 
GPS: 
GPS: 
GPS: $GPGGA,231443.000,6500.712522,N,02530.959658,E,1,4,2.82,36.733,M,21.545,M,,*6E
GPS: $GPGLL,6500.712522,N,02530.959658,E,231443.000,A,A*52
GPS: $GPGSA,A,3,06,19,22,08,,,,,,,,,4.47,2.82,3.47*0B
GPS: $GPGSV,2,1,06,06,66,221,39,19,39,286,33,22,35,179,18,08,21,341,41*77
GPS: $
GPS: 
GPS: 
GPS: 
GPS: 
GPS: $GPGGA,231444.001,6500.712522,N,02530.959658,E,1,4,2.82,36.733,M,21.545,M,,*68
GPS: $GPGLL,6500.712522,N,02530.959658,E,231444.001,A,A*54
GPS: $GPGSA,A,3,06,19,22,08,,,,,,,,,4.48,2.82,3.47*04
GPS: $GPGSV,2,1,06,06,66,221,39,19,39,286,34,22,35,179,18,08,21,341,40*71
GPS: $
GPS: 
GPS: 
GPS: 
GPS: 
GSM: 
GSM: UNDER-VOLTAGE WARNNING
GPS: $GPGGA,231445.000,6500.712522,N,02530.959658,E,1,4,2.82,36.733,M,21.545,M,,*68
GPS: $GPGLL,6500.712522,N,02530.959658,E,231445.000,A,A*54
GPS: $GPGSA,A,3,06,19,22,08,,,,,,,,,4.47,2.82,3.47*0B
GPS: $GPGSV,2,1,06,06,66,221,39,19,39,286,34,22,35,179,18,08,21,341,40*71
GPS: $
GPS: 
GPS: 
GPS: 
GPS: 
GPS: $GPGGA,231446.000,6500.712522,N,02530.959658,E,1,4,2.83,36.733,M,21.545,M,,*6A
GPS: $GPGLL,6500.712522,N,02530.959658,E,231446.000,A,A*57
GPS: $GPGSA,A,3,06,19,22,08,,,,,,,,,4.48,2.83,3.48*0A
GPS: $GPGSV,2,1,06,06,66,221,39,19,39,286,34,22,35,179,18,08,21,341,41*70
GPS: $
GPS: 
GPS: 
GPS: 
GPS: 
GPS: 
GPS: 
GPS: 
GPS: 
GPS: 
GPS: 
GPS: 
GPS: 
GPS: 
GPS: $GPGGA,231448.000,6500.712522,N,02530.959658,E,1,4,2.83,36.733,M,21.545,M,,*64
GPS: $GPGLL,6500.712522,N,02530.959658,E,231448.000,A,A*59
GPS: $GPGSA,A,3,06,19,22,08,,,,,,,,,4.48,2.83,3.48*0A
GPS: $GPGSV,2,1,06,06,66,221,39,19,39,286,34,22,35,179,18,08,21,341,40*71
GPS: $
GPS: 
GPS: 
GPS: 
GPS: 
GPS: $GPGGA,231449.000,6500.712522,N,02530.959658,E,1,4,2.83,36.733,M,21.545,M,,*65
GPS: $GPGLL,6500.712522,N,02530.959658,E,231449.000,A,A*58
GPS: $GPGSA,A,3,06,19,22,08,,,,,,,,,4.48,2.83,3.48*0A
GPS: $GPGSV,2,1,06,06,66,221,39,19,39,286,34,22,35,179,18,08,21,341,40*71
GPS: $
GPS: 
GPS: 
GPS: 
GPS: 
GSM: 
GSM: UNDER-VOLTAGE WARNNING
GPS: $GPGGA,231450.000,6500.712522,N,02530.959658,E,1,4,2.83,36.733,M,21.545,M,,*6D
GPS: $GPGLL,6500.712522,N,02530.959658,E,231450.000,A,A*50
GPS: $GPGSA,A,3,06,19,22,08,,,,,,,,,4.49,2.83,3.48*0B
GPS: $GPGSV,2,1,06,06,66,221,39,19,39,286,34,22,35,179,18,08,21,341,40*71
GPS: $
GPS: 
GPS: 
GPS: 
GPS: 
GPS: $GPGGA,231451.000,6500.712522,N,02530.959658,E,1,4,2.83,36.733,M,21.545,M,,*6C
GPS: $GPGLL,6500.712522,N,02530.959658,E,231451.000,A,A*51
GPS: $GPGSA,A,3,06,19,22,08,,,,,,,,,4.49,2.83,3.48*0B
GPS: $GPGSV,2,1,06,06,66,221,38,19,39,286,34,22,35,179,23,08,21,341,41*79
GPS: $
GPS: 
GPS: 
GPS: 
GPS: 
GPS: 
GPS: 
GPS: 
GPS: 
GPS: 
GPS: 
GPS: 
GPS: 
GPS: 
GPS: $GPGGA,231453.000,6500.712522,N,02530.959658,E,1,3,2.96,36.733,M,21.545,M,,*6D
GPS: $GPGLL,6500.712522,N,02530.959658,E,231453.000,A,A*53
GPS: $GPGSA,A,2,06,19,08,,,,,,,,,,3.12,2.96,1.00*09
GPS: $GPGSV,2,1,06,06,66,221,39,19,39,286,34,22,35,179,,08,21,341,40*78
GPS: $GPGS
GPS: 
GPS: 
GPS: 
GPS: 
GPS: $GPGGA,231454.000,6500.712522,N,02530.959658,E,1,4,2.83,36.733,M,21.545,M,,*69
GPS: $GPGLL,6500.712522,N,02530.959658,E,231454.000,A,A*54
GPS: $GPGSA,A,3,06,19,22,08,,,,,,,,,4.49,2.83,3.48*0B
GPS: $GPGSV,2,1,06,06,66,221,39,19,39,286,34,22,35,179,26,08,21,341,40*7C
GPS: $
GPS: 
GPS: 
GPS: 
GPS: 
GPS: 
GPS: 
GPS: 
GPS: 
GPS: 
GPS: 
GPS: 
GPS: 
GPS: 
GPS: $GPGGA,231456.000,6500.712522,N,02530.959658,E,1,4,2.84,36.733,M,21.545,M,,*6C
GPS: $GPGLL,6500.712522,N,02530.959658,E,231456.000,A,A*56
GPS: $GPGSA,A,3,06,19,22,08,,,,,,,,,4.50,2.84,3.49*05
GPS: $GPGSV,2,1,06,06,66,221,40,19,39,286,34,22,35,179,25,08,21,341,40*71
GPS: $
GPS: 
GPS: 
GPS: 
GPS: 
GSM: 
GSM: UNDER-VOLTAGE WARNNING
GPS: $GPGGA,231457.000,6500.712522,N,02530.959658,E,1,5,2.05,36.733,M,21.545,M,,*65
GPS: $GPGLL,6500.712522,N,02530.959658,E,231457.000,A,A*57
GPS: $GPGSA,A,3,06,19,22,16,08,,,,,,,,3.32,2.05,2.61*03
GPS: $GPGSV,2,1,06,06,66,221,38,19,39,286,34,22,35,179,25,16,30,216,40*72
GPS: 
GPS: 
GPS: 
GPS: 
GPS: 
GPS: $GPGGA,231458.000,6500.712522,N,02530.959658,E,1,5,2.05,36.733,M,21.545,M,,*6A
GPS: $GPGLL,6500.712522,N,02530.959658,E,231458.000,A,A*58
GPS: $GPGSA,A,3,06,19,22,16,08,,,,,,,,3.32,2.05,2.61*03
GPS: $GPGSV,2,1,06,06,66,221,39,19,39,286,34,22,35,179,27,16,30,216,40*71
GPS: 
GPS: 
GPS: 
GPS: 
GPS: 
GPS: $GPGGA,231459.000,6500.712522,N,02530.959658,E,1,5,2.05,36.733,M,21.545,M,,*6B
GPS: $GPGLL,6500.712522,N,02530.959658,E,231459.000,A,A*59
GPS: $GPGSA,A,3,06,19,22,16,08,,,,,,,,3.32,2.05,2.61*03
GSM: 
GSM: UNDER-VOLTAGE WARNNING
GPS: $GPGSV,2,1,06,06,66,221,39,19,39,286,34,22,35,179,28,16,30,216,40*7E
GPS: 
GPS: 
GPS: 
GPS: 
GPS: 
GPS: 
GPS: 
GPS: 
GPS: 
GPS: 
GPS: 
GPS: 
GPS: 
GPS: 
GPS: $GPGGA,231501.000,6500.712522,N,02530.959658,E,1,5,2.05,36.733,M,21.545,M,,*67
GPS: $GPGLL,6500.712522,N,02530.959658,E,231501.000,A,A*55
GPS: $GPGSA,A,3,06,19,22,16,08,,,,,,,,3.32,2.05,2.61*03
GPS: $GPGSV,2,1,06,06,66,221,39,19,39,286,36,22,35,179,31,16,30,216,40*74
GPS: 
GPS: 
GPS: 
GPS: 
GPS: 
GPS: $GPGGA,231502.000,6500.712522,N,02530.959658,E,1,5,2.05,36.733,M,21.545,M,,*64
GPS: $GPGLL,6500.712522,N,02530.959658,E,231502.000,A,A*56
GPS: $GPGSA,A,3,06,19,22,16,08,,,,,,,,3.32,2.05,2.61*03
GPS: $GPGSV,2,1,06,06,66,221,39,19,39,286,35,22,35,179,32,16,30,216,40*74
GPS: 
GPS: 
GPS: 
GPS: 
GPS: 
GPS: $GPGGA,231503.000,6500.712522,N,02530.959658,E,1,5,2.05,36.733,M,21.545,M,,*65
GPS: $GPGLL,6500.712522,N,02530.959658,E,231503.000,A,A*57
GPS: $GPGSA,A,3,06,19,22,16,08,,,,,,,,3.32,2.05,2.61*03
GPS: $GPGSV,2,1,06,06,66,221,40,19,39,286,35,22,35,179,32,16,30,216,39*74
GPS: 
GPS: 
GPS: 
GPS: 
GPS: 
GPS: 
GPS: 
GPS: 
GPS: 
GPS: 
GPS: 
GPS: 
GPS: 
GPS: 
GSM: 
GSM: UNDER-VOLTAGE WARNNING
GPS: $GPGGA,231505.000,6500.712522,N,02530.959658,E,1,5,2.05,36.733,M,21.545,M,,*63
GPS: $GPGLL,6500.712522,N,02530.959658,E,231505.000,A,A*51
GPS: $GPGSA,A,3,06,19,22,16,08,,,,,,,,3.32,2.05,2.61*03
GPS: $GPGSV,2,1,06,06,66,221,38,19,39,286,36,22,35,179,34,16,30,216,39*7E
GPS: 
GPS: 
GPS: 
GPS: 
GPS: 
GPS: $GPGGA,231506.000,6500.712522,N,02530.959658,E,1,5,2.05,36.733,M,21.545,M,,*60
GPS: $GPGLL,6500.712522,N,02530.959658,E,231506.000,A,A*52
GPS: $GPGSA,A,3,06,19,22,16,08,,,,,,,,3.32,2.05,2.61*03
GPS: $GPGSV,2,1,06,06,66,221,39,19,39,286,36,22,35,179,34,16,30,216,40*71
GPS: 
GPS: 
GPS: 
GPS: 
GPS: 
GPS: $GPGGA,231507.000,6500.712522,N,02530.959658,E,1,5,2.05,36.733,M,21.545,M,,*61
GPS: $GPGLL,6500.712522,N,02530.959658,E,231507.000,A,A*53
GPS: $GPGSA,A,3,06,19,22,16,08,,,,,,,,3.32,2.05,2.61*03
GPS: $GPGSV,2,1,06,06,66,221,39,19,39,286,36,22,35,179,34,16,30,216,39*7FA,A*5C
GPS: $GPGSA,A,3,06,19,22,16,08,,,,,,,,3.32,2.06,2.61*00
GPS: $GPGSV,2,1,06,06,66,,19,39,286,36,22,35,179,35,16,30,216,39*7F
GPS: $GPGSV,2,2,,21,341,41,07,,,29*4B
GPS: $GPRMC,231508.000,A,6500.71252530.959658,E,0.000,0.0,040513,,,A*68
GPS: $GPVTG,0.0,T,,M,0.000,N,0.000,K,A*0D
GPS: ,231508.000,04,05,2013,,*5A
GPS: 
GPS: 
GPS: 
GPS: 
GPS: 
GPS: 
GPS: 
GPS: 
GPS: $GPGGA,231509.000,6500.712522,N,02530.959658,E,1,5,2.05,36.733,M,21.545,M,,*6F
GPS: $GPGLL,6500.712522,N,02530.959658,E,231509.000,A,A*5D
GPS: $GPGSA,A,3,06,19,22,16,08,,,,,,,,3.32,2.05,2.61*03
GPS: $GPGSV,2,1,06,06,66,221,39,19,39,286,37,22,35,179,35,16,30,216,39*7F
GPS: 
GPS: 
GPS: 
GPS: 
GPS: 
GSM: 
GSM: UNDER-VOLTAGE WARNNING
GPS: $GPGGA,231510.000,6500.712522,N,02530.959658,E,1,5,2.05,36.733,M,21.545,M,,*67
GPS: $GPGLL,6500.712522,N,02530.959658,E,231510.000,A,A*55
GPS: $GPGSA,A,3,06,19,22,16,08,,,,,,,,3.32,2.05,2.61*03
GPS: $GPGSV,2,1,06,06,66,221,39,19,39,286,37,22,35,179,36,16,30,216,39*7C
GPS: 
GPS: 
GPS: 
GPS: 
GPS: 
GPS: $GPGGA,231511.000,6500.712522,N,02530.959658,E,1,5,2.05,36.733,M,21.545,M,,*66
GPS: $GPGLL,6500.712522,N,02530.959658,E,231511.000,A,A*54
GPS: $GPGSA,A,3,06,19,22,16,08,,,,,,,,3.32,2.05,2.61*03
GPS: $GPGSV,2,1,06,06,66,221,38,19,39,286,37,22,35,179,36,16,30,216,40*73
GPS: 
GPS: 
GPS: 
GPS: 
GPS: 
GPS: 
GPS: 
GPS: 
GPS: 
GPS: 
GPS: 
GPS: 
GPS: 
GPS: 
GPS: $GPGGA,231513.000,6500.712522,N,02530.959658,E,1,5,2.05,36.733,M,21.545,M,,*64
GPS: $GPGLL,6500.712522,N,02530.959658,E,231513.000,A,A*56
GPS: $GPGSA,A,3,06,19,22,16,08,,,,,,,,3.32,2.05,2.61*03
GPS: $GPGSV,2,1,06,06,66,221,38,19,39,286,37,22,35,179,37,16,30,216,40*72
GPS: 
GPS: 
GPS: 
GPS: 
GPS: 
GPS: $GPGGA,231514.000,6500.712522,N,02530.959658,E,1,5,2.05,36.733,M,21.545,M,,*63
GPS: $GPGLL,6500.712522,N,02530.959658,E,231514.000,A,A*51
GPS: $GPGSA,A,3,06,19,22,16,08,,,,,,,,3.32,2.05,2.61*03
GPS: $GPGSV,2,1,06,06,66,221,37,19,39,286,37,22,35,179,37,16,30,216,40*7D
GPS: 
GPS: 
GPS: 
GPS: 
GPS: 
GSM: 
GSM: UNDER-VOLTAGE WARNNING
GPS: $GPGGA,231515.000,6500.712522,N,02530.959658,E,1,5,2.05,36.733,M,21.545,M,,*62
GPS: $GPGLL,6500.712522,N,02530.959658,E,231515.000,A,A*50
GPS: $GPGSA,A,3,06,19,22,16,08,,,,,,,,3.32,2.05,2.61*03
GPS: $GPGSV,2,1,07,06,66,221,38,21,50,100,,19,39,286,37,22,35,179,37*71
GPS: $
GPS: 
GPS: 
GPS: 
GPS: 
GPS: $GPGGA,231516.000,6500.712522,N,02530.959658,E,1,5,2.06,36.733,M,21.545,M,,*62
GPS: $GPGLL,6500.712522,N,02530.959658,E,231516.000,A,A*53
GPS: $GPGSA,A,3,06,19,22,16,08,,,,,,,,3.32,2.06,2.61*00
GPS: $GPGSV,2,1,07,06,66,220,38,21,50,100,,19,39,286,38,22,35,179,37*7F
GPS: $
GPS: 
GPS: 
GPS: 
GPS: 
GPS: 
GPS: 
GPS: 
GPS: 
GPS: 
GPS: 
GPS: 
GPS: 
GPS: 
GPS: $GPGGA,231518.000,6500.712522,N,02530.959658,E,1,5,2.05,36.733,M,21.545,M,,*6F
GPS: $GPGLL,6500.712522,N,02530.959658,E,231518.000,A,A*5D
GPS: $GPGSA,A,3,06,19,22,16,08,,,,,,,,3.32,2.05,2.61*03
GPS: $GPGSV,2,1,08,06,66,220,39,21,50,100,,19,39,286,38,22,35,179,37*71
GPS: $
GPS: 
GPS: 
GPS: 
GPS: 
GPS: $GPGGA,231519.000,6500.712522,N,02530.959658,E,1,5,2.05,36.733,M,21.545,M,,*6E
GPS: $GPGLL,6500.712522,N,02530.959658,E,231519.000,A,A*5C
GPS: $GPGSA,A,3,06,19,22,16,08,,,,,,,,3.32,2.05,2.61*03
GPS: $GPGSV,2,1,08,06,66,220,38,21,50,100,,19,39,286,38,22,35,179,37*70
GPS: $21.545,M,,*64
GPS: $GPGLL,6500.712522,N,02530.959658,E,231520.000,A,A*56
GPS: $GPGSA,A,3,22,16,08,,,,,,,,3.32,2.05,2.61*03
GPS: $GPGSV,2,1,08,06,6639,21,50,100,,19,39,286,38,22,35,179,37*71
GPS: $GPGSV,2,16,30,216,40,08,21,340,40,03,,,32,07,,,23*78
GPS: $GPRMC,231520.000,A,62522,N,02530.959,0.000,0.0,040513,,,A*62
GPS: $GPVTG,0.0,T,,M,0.000,N,0.0000D
GPS: $GPZDA,231520.000,04,05,2013,,*50
GPS: 
GPS: 
GPS: 
GPS: 
GPS: 
GPS: 
GPS: $GPGGA,231521.000,6500.712522,N,02530.959658,E,1,6,1.93,36.733,M,21.545,M,,*6A
GPS: $GPGLL,6500.712522,N,02530.959658,E,231521.000,A,A*57
GPS: $GPGSA,A,3,06,19,22,16,08,07,,,,,,,3.03,1.93,2.33*0D
GPS: $GPGSV,2,1,08,06,66,220,38,21,50,100,,19,39,286,36,22,35,179,36*7F
GPS: 
GPS: 
GPS: 
GPS: 
GPS: 
GSM: 
GSM: UNDER-VOLTAGE WARNNING
GPS: $GPGGA,231522.000,6500.712522,N,02530.959658,E,1,6,1.93,36.733,M,21.545,M,,*69
GPS: $GPGLL,6500.712522,N,02530.959658,E,231522.000,A,A*54
GPS: $GPGSA,A,3,06,19,22,16,08,07,,,,,,,3.03,1.93,2.33*0D
GPS: $GPGSV,2,1,08,06,66,220,39,21,50,100,,19,39,286,38,22,35,179,37*71
GPS: 
GPS: 
GPS: 
GPS: 
GPS: 
GPS: $GPGGA,231523.000,6500.712522,N,02530.959658,E,1,6,1.93,36.733,M,21.545,M,,*68
GPS: $GPGLL,6500.712522,N,02530.959658,E,231523.000,A,A*55
GPS: $GPGSA,A,3,06,19,22,16,08,07,,,,,,,3.03,1.93,2.33*0D
GPS: $GPGSV,2,1,08,06,66,220,38,21,50,100,,19,39,286,35,22,35,179,35*7F
GPS: 
GPS: 
GPS: 
GPS: 
GPS: 
GPS: $GPGGA,231524.000,6500.712522,N,02530.959658,E,1,6,1.93,36.733,M,21.545,M,,*6F
GPS: $GPGLL,6500.712522,N,02530.959658,E,231524.000,A,A*52
GPS: $GPGSA,A,3,06,19,22,16,08,07,,,,,,,3.03,1.93,2.33*0D
GPS: $GPGSV,2,1,08,06,66,220,39,21,50,100,,19,39,286,37,22,35,179,37*7E
GPS: 
GPS: 
GPS: 
GPS: 
GPS: 
GPS: 
GPS: 
GPS: 
GPS: 
GPS: 
GPS: 
GPS: 
GPS: 
GPS: 
GPS: $GPGGA,231526.000,6500.712522,N,02530.959658,E,1,6,1.93,36.733,M,21.545,M,,*6D
GPS: $GPGLL,6500.712522,N,02530.959658,E,231526.000,A,A*50
GPS: $GPGSA,A,3,06,19,22,16,08,07,,,,,,,3.02,1.93,2.33*0C
GPS: $GPGSV,2,1,08,06,66,220,37,21,50,100,,19,39,286,35,22,35,179,35*70
GPS: 
GPS: 
GPS: 
GPS: 
GPS: 
GSM: 
GSM: UNDER-VOLTAGE WARNNING
GPS: $GPGGA,231527.000,6500.712522,N,02530.959658,E,1,6,1.93,36.733,M,21.545,M,,*6C
GPS: $GPGLL,6500.712522,N,02530.959658,E,231527.000,A,A*51
GPS: $GPGSA,A,3,06,19,22,16,08,07,,,,,,,3.03,1.93,2.33*0D
GPS: $GPGSV,2,1,08,06,66,220,38,21,50,100,,19,39,286,35,22,35,179,37*7D
GPS: 
GPS: 
GPS: 
GPS: 
GPS: 
GPS: $GPGGA,231528.001,6500.712522,N,02530.959658,E,1,6,1.93,36.733,M,21.545,M,,*62
GPS: $GPGLL,6500.712522,N,02530.959658,E,231528.001,A,A*5F
GPS: $GPGSA,A,3,06,19,22,16,08,07,,,,,,,3.02,1.93,2.33*0C
GPS: $GPGSV,2,1,08,06,66,220,38,21,50,100,,19,39,286,35,22,35,179,37*7D
GPS: 
GPS: 
GPS: 
GPS: 
GPS: 
GPS: 
GPS: 
GPS: 
GPS: 
GPS: 
GPS: 
GPS: 
GPS: 
GPS: 
GSM: 
GSM: UNDER-VOLTAGE WARNNING
GPS: $GPGGA,231530.000,6500.712522,N,02530.959658,E,1,6,1.93,36.733,M,21.545,M,,*6A
GPS: $GPGLL,6500.712522,N,02530.959658,E,231530.000,A,A*57
GPS: $GPGSA,A,3,06,19,22,16,08,07,,,,,,,3.03,1.93,2.33*0D
GPS: $GPGSV,2,1,08,06,66,220,39,21,50,100,,19,40,285,35,22,35,179,36*70
GPS: 
GPS: 
GPS: 
GPS: 
GPS: 
GPS: $GPGGA,231531.000,6500.712522,N,02530.959658,E,1,6,2.36,36.733,M,21.545,M,,*67
GPS: $GPGLL,6500.712522,N,02530.959658,E,231531.000,A,A*56
GPS: $GPGSA,A,3,06,19,22,16,08,07,,,,,,,3.57,2.36,2.67*01
GPS: $GPGSV,2,1,08,06,66,220,39,21,50,100,,19,40,285,35,22,35,179,37*71
GPS: 
GPS: 
GPS: 
GPS: 
GPS: 
GPS: $GPGGA,231532.000,6500.712522,N,02530.959658,E,1,6,1.93,36.733,M,21.545,M,,*68
GPS: $GPGLL,6500.712522,N,02530.959658,E,231532.000,A,A*55
GPS: $GPGSA,A,3,06,19,22,16,08,07,,,,,,,3.02,1.93,2.33*0C
GPS: $GPGSV,2,1,08,06,66,220,39,21,50,100,,19,40,285,35,22,35,179,37*71
GPS: 
GPS: 
GPS: 
GPS: 
GPS: 
GPS: 
GPS: 
GPS: 
GPS: 
GPS: 
GPS: 
GPS: 
GPS: 
GPS: 
GPS: $GPGGA,231534.000,6500.712522,N,02530.959658,E,1,6,2.36,36.733,M,21.545,M,,*62
GPS: $GPGLL,6500.712522,N,02530.959658,E,231534.000,A,A*53
GPS: $GPGSA,A,3,06,19,22,16,08,07,,,,,,,3.57,2.36,2.68*0E
GPS: $GPGSV,2,1,08,06,66,220,38,21,50,100,,19,40,285,34,22,35,179,35*73
GPS: 
GPS: 
GPS: 
GPS: 
GPS: 
GSM: 
GSM: UNDER-VOLTAGE WARNNING
GPS: $GPGGA,231535.000,6500.712522,N,02530.959658,E,1,6,1.93,36.733,M,21.545,M,,*6F
GPS: $GPGLL,6500.712522,N,02530.959658,E,231535.000,A,A*52
GPS: $GPGSA,A,3,06,19,22,16,08,07,,,,,,,3.03,1.93,2.33*0D
GPS: $GPGSV,2,1,08,06,66,220,40,21,50,100,24,19,40,285,36,22,35,179,37*7
GPS: 
GPS: 
GPS: 
GPS: 
GPS: 
GPS: $GPGGA,231536.000,6500.712522,N,02530.959658,E,1,6,1.93,36.733,M,21.545,M,,*6C
GPS: $GPGLL,6500.712522,N,02530.959658,E,231536.000,A,A*51
GPS: $GPGSA,A,3,06,19,22,16,08,07,,,,,,,3.02,1.93,2.33*0C
GPS: $GPGSV,2,1,08,06,66,220,40,21,50,100,24,19,40,285,36,22,35,179,37*7,66,220,40,21,50,100,25,19,40,285,37,22,35,179,38*75
GPS: $GPGSV,2,2,08,16,29,216,381,340,41,07,16,310,28,03,,,35*47
GPS: $GPRMC,231537.000,A,62522,N,02530.959658,E,0.000,0.0,040513,,,A*64
GPS: $GPVTG,,,M,0.000,N,0.000,K,A*0D
GPS: $GPZDA,231537.000,04,05,2013,,*56
GPS: 
GPS: 
GPS: 
GPS: 
GPS: 
GPS: 
GPS: 
GPS: 
GPS: 
GPS: 
GPS: $GPGGA,231538.000,6500.712522,N,02530.959658,E,1,6,1.93,36.733,M,21.545,M,,*62
GPS: $GPGLL,6500.712522,N,02530.959658,E,231538.000,A,A*5F
GPS: $GPGSA,A,3,06,19,22,16,08,07,,,,,,,3.03,1.93,2.33*0D
GPS: $GPGSV,2,1,08,06,66,220,39,21,50,100,26,19,40,285,37,22,35,179,37*7
GPS: 
GPS: 
GPS: 
GPS: 
GPS: 
GPS: $GPGGA,231539.000,6500.712522,N,02530.959658,E,1,6,1.93,36.733,M,21.545,M,,*63
GPS: $GPGLL,6500.712522,N,02530.959658,E,231539.000,A,A*5E
GPS: $GPGSA,A,3,06,19,22,16,08,07,,,,,,,3.02,1.93,2.33*0C
GPS: $GPGSV,2,1,08,06,66,220,40,21,50,100,27,19,40,285,37,22,35,179,37*7
GPS: 
GPS: 
GPS: 
GPS: 
GPS: 
GSM: 
GSM: UNDER-VOLTAGE WARNNING
GPS: $GPGGA,231540.000,6500.712522,N,02530.959658,E,1,6,1.93,36.733,M,21.545,M,,*6D
GPS: $GPGLL,6500.712522,N,02530.959658,E,231540.000,A,A*50
GPS: $GPGSA,A,3,06,19,22,16,08,07,,,,,,,3.02,1.93,2.33*0C
GPS: $GPGSV,2,1,08,06,66,220,39,21,50,100,27,19,40,285,37,22,35,179,38*7
GPS: 
GPS: 
GPS: 
GPS: 
GPS: 
GPS: $GPGGA,231541.000,6500.712522,N,02530.959658,E,1,6,1.93,36.733,M,21.545,M,,*6C
GPS: $GPGLL,6500.712522,N,02530.959658,E,231541.000,A,A*51
GPS: $GPGSA,A,3,06,19,22,16,08,07,,,,,,,3.02,1.93,2.33*0C
GPS: $GPGSV,2,1,08,06,66,220,40,21,50,100,26,19,40,285,37,22,35,179,38*7
GPS: 
GPS: 
GPS: 
GPS: 
GPS: 
GPS: 
GPS: 
GPS: 
GPS: 
GPS: 
GPS: 
GPS: 
GPS: 
GPS: 
GPS: $GPGGA,231543.000,6500.712522,N,02530.959658,E,1,6,1.93,36.733,M,21.545,M,,*6E
GPS: $GPGLL,6500.712522,N,02530.959658,E,231543.000,A,A*53
GPS: $GPGSA,A,3,06,19,22,16,08,07,,,,,,,3.02,1.93,2.33*0C
GPS: $GPGSV,2,1,08,06,66,220,39,21,50,100,27,19,40,285,38,22,35,179,38*7
GPS: 
GPS: 
GPS: 
GPS: 
GPS: 
GPS: $GPGGA,231544.000,6500.712522,N,02530.959658,E,1,6,1.93,36.733,M,21.545,M,,*69
GPS: $GPGLL,6500.712522,N,02530.959658,E,231544.000,A,A*54
GPS: $GPGSA,A,3,06,19,22,16,08,07,,,,,,,3.02,1.93,2.33*0C
GPS: $GPGSV,2,1,08,06,66,220,40,21,50,100,26,19,40,285,38,22,35,179,38*7
GPS: 
GPS: 
GPS: 
GPS: 
GPS: 
GPS: $GPGGA,231545.000,6500.712522,N,02530.959658,E,1,6,1.93,36.733,M,21.545,M,,*68
GPS: $GPGLL,6500.712522,N,02530.959658,E,231545.000,A,A*55
GPS: $GPGSA,A,3,06,19,22,16,08,07,,,,,,,3.02,1.93,2.33*0C
GPS: $GPGSV,2,1,08,06,66,220,40,21,50,100,25,19,40,285,38,22,35,179,38*7,A*0D
GPS: $GPZDA,231546.000,04,05,2013,,*50
GPS: 
GPS: 
GPS: 
GPS: 
GSM: 
GSM: UNDER-VOLTAGE WARNNING
GPS: 
GPS: 
GPS: 
GPS: 
GPS: 
GPS: 
GPS: 
GPS: 
GPS: 
GPS: $GPGGA,231547.000,6500.712522,N,02530.959658,E,1,6,1.93,36.733,M,21.545,M,,*6A
GPS: $GPGLL,6500.712522,N,02530.959658,E,231547.000,A,A*57
GPS: $GPGSA,A,3,06,19,22,16,08,07,,,,,,,3.02,1.93,2.32*0D
GPS: $GPGSV,2,1,08,06,66,220,40,21,50,100,24,19,40,285,38,22,35,179,39*7
GPS: 
GPS: 
GPS: 
GPS: 
GPS: 
GPS: $GPGGA,231548.000,6500.712522,N,02530.959658,E,1,6,1.93,36.733,M,21.545,M,,*65
GPS: $GPGLL,6500.712522,N,02530.959658,E,231548.000,A,A*58
GPS: $GPGSA,A,3,06,19,22,16,08,07,,,,,,,3.02,1.93,2.32*0D
GPS: $GPGSV,2,1,08,06,66,220,40,21,50,100,25,19,40,285,39,22,35,179,38*7
GPS: 
GPS: 
GPS: 
GPS: 
GPS: 
GPS: $GPGGA,231549.000,6500.712522,N,02530.959658,E,1,6,1.93,36.733,M,21.545,M,,*64
GPS: $GPGLL,6500.712522,N,02530.959658,E,231549.000,A,A*59
GPS: $GPGSA,A,3,06,19,22,16,08,07,,,,,,,3.02,1.93,2.32*0D
GPS: $GPGSV,2,1,08,06,66,219,40,21,50,100,23,19,40,285,39,22,35,179,39*73,,,37*41
GPS: $GPRMC,231550.000,A,6500.712522,N,02530.959658,E,0.000,0.0,040513,,,AGPVTG,0.0,T,,M,0.000,N,0.000,K,A*0D
GPS: $GPZDA,231550.000,2013,,*57
GPS: 
GPS: 
GPS: 
GPS: 
GPS: 
GPS: 
GPS: 
GPS: 
GPS: 
GPS: 
GPS: 
GPS: 
GPS: $GPGGA,231551.000,6500.712522,N,02530.959658,E,1,6,1.93,36.733,M,21.545,M,,*6D
GPS: $GPGLL,6500.712522,N,02530.959658,E,231551.000,A,A*50
GPS: $GPGSA,A,3,06,19,22,16,08,07,,,,,,,3.02,1.93,2.32*0D
GPS: $GPGSV,2,1,08,06,66,219,40,21,50,100,22,19,40,285,39,22,35,179,39*7
GPS: 
GPS: 
GPS: 
GPS: 
GPS: 
GSM: 
GSM: UNDER-VOLTAGE WARNNING
GPS: $GPGGA,231552.000,6500.712522,N,02530.959658,E,1,6,1.93,36.733,M,21.545,M,,*6E
GPS: $GPGLL,6500.712522,N,02530.959658,E,231552.000,A,A*53
GPS: $GPGSA,A,3,06,19,22,16,08,07,,,,,,,3.02,1.93,2.32*0D
GPS: $GPGSV,2,1,08,06,66,219,40,21,50,100,22,19,40,285,39,22,35,179,39*7
GPS: 
GPS: 
GPS: 
GPS: 
GPS: 
GPS: $GPGGA,231553.000,6500.712522,N,02530.959658,E,1,6,1.93,36.733,M,21.545,M,,*6F
GPS: $GPGLL,6500.712522,N,02530.959658,E,231553.000,A,A*52
GPS: $GPGSA,A,3,06,19,22,16,08,07,,,,,,,3.02,1.93,2.32*0D
GPS: $GPGSV,2,1,08,06,66,219,39,21,50,100,21,19,40,285,39,22,35,179,39*7
GPS: 
GPS: 
GPS: 
GPS: 
GPS: 
GPS: 
GPS: 
GPS: 
GPS: 
GPS: 
GPS: 
GPS: 
GPS: 
GPS: 
GPS: $GPGGA,231555.000,6500.712522,N,02530.959658,E,1,6,1.94,36.733,M,21.545,M,,*6E
GPS: $GPGLL,6500.712522,N,02530.959658,E,231555.000,A,A*54
GPS: $GPGSA,A,3,06,19,22,16,08,07,,,,,,,3.02,1.94,2.32*0A
GPS: $GPGSV,2,1,08,06,66,219,40,21,50,100,20,19,40,285,39,22,35,179,39*7
GPS: 
GPS: 
GPS: 
GPS: 
GPS: 
GPS: $GPGGA,231556.000,6500.712522,N,02530.959658,E,1,6,1.93,36.733,M,21.545,M,,*6A
GPS: $GPGLL,6500.712522,N,02530.959658,E,231556.000,A,A*57
GPS: $GPGSA,A,3,06,19,22,16,08,07,,,,,,,3.02,1.93,2.32*0D
GPS: $GPGSV,2,1,08,06,66,219,39,21,50,100,20,19,40,285,40,22,35,179,39*7
GPS: 
GPS: 
GPS: 
GPS: 
GPS: 
GSM: 
GSM: UNDER-VOLTAGE WARNNING
GPS: $GPGGA,231557.000,6500.712522,N,02530.959658,E,1,7,1.90,36.733,M,21.545,M,,*69
GPS: $GPGLL,6500.712522,N,02530.959658,E,231557.000,A,A*56
GPS: $GPGSA,A,3,06,03,19,22,16,08,07,,,,,,2.72,1.90,1.95*05
GPS: $GPGSV,2,1,08,06,66,219,40,03,58,261,36,21,50,100,20,19,40,285,39
GPS: 
GPS: 
GPS: 
GPS: 
GPS: 
GPS: $GPGGA,231558.000,6500.712522,N,02530.959658,E,1,7,1.90,36.733,M,21.545,M,,*66
GPS: $GPGLL,6500.712522,N,02530.959658,E,231558.000,A,A*59
GPS: $GPGSA,A,3,06,03,19,22,16,08,07,,,,,,2.72,1.90,1.95*05
GPS: $GPGSV,2,1,08,06,66,219,40,03,58,261,36,21,50,100,21,19,40,285,39
GPS: 
GPS: 
GPS: 
GPS: 
GPS: 
GPS: 
GPS: 
GPS: 
GPS: 
GPS: 
GPS: 
GPS: 
GPS: 
GPS: 
GSM: 
GSM: UNDER-VOLTAGE WARNNING
GPS: $GPGGA,231600.000,6500.712522,N,02530.959658,E,1,6,1.93,36.733,M,21.545,M,,*6A
GPS: $GPGLL,6500.712522,N,02530.959658,E,231600.000,A,A*57
GPS: $GPGSA,A,3,06,19,22,16,08,07,,,,,,,3.02,1.93,2.32*0D
GPS: $GPGSV,2,1,08,06,66,219,40,03,58,261,35,21,50,100,22,19,40,285,39*7
GPS: 
GPS: 
GPS: 
GPS: 
GPS: 
GPS: $GPGGA,231601.000,6500.712522,N,02530.959658,E,1,7,1.90,36.733,M,21.545,M,,*69
GPS: $GPGLL,6500.712522,N,02530.959658,E,231601.000,A,A*56
GPS: $GPGSA,A,3,06,03,19,22,16,08,07,,,,,,2.72,1.90,1.95*05
GPS: $GPGSV,2,1,08,06,66,219,39,03,58,261,35,21,50,100,22,19,40,285,39
GPS: $GPGGA,231602.000,6500.7125
GPS: 22,N,02530.959658,E,1,7,1.90,36.733
GPS: ,M,21.545,M,,*6A
GPS: $GPGLL,6500.712522,N,02530.959658,E,231602.000,
GPS: A,A*55
GPS: $GPGSA,A,3,06,03,19,22,16,08,07,,,,,,2.72,1.90,1.95*05
GPS: $GPGSV,2,1,08,06,66,219,39,03,58,261,35,21,50,100,22,19,40,285,39
GPS: *77
GPS: $GPGSV,2,2,08,22,35,179,40,16,29,216,36,08,21,340,41,07,16,310,30*78
GPS: $GPRMC,231602.000,A,6500.712522,N,02530.959658,E,0.000,0.0,040513,,,A*61
GPS: $GPVTG,0.0,T,,M,0.000,N,0.000,K,A*0D
GPS: $GPZDA,231602.000,04,05,2013,,*53
GPS: 
GPS: 
GPS: $GPGGA,231603.000,6500.712522,N,02530.959658,E,1,7,1.90,36.733,M,21.545,M,,*6B
GPS: $GPGLL,6500.712522,N,02530.959658,E,231603.000,A,A*54
GPS: $GPGSA,A,3,06,03,19,22,16,08,07,,,,,,2.72,1.90,1.95*05
GPS: $GPGSV,2,1,08,06,66,219,39,03,58,261,35,21,50,100,22,19,40,285,39
GPS: 
GPS: 
GPS: 
GPS: 
GPS: 
GPS: $GPGGA,231604.000,6500.712522,N,02530.959658,E,1,7,1.90,36.733,M,21.545,M,,*6C
GPS: $GPGLL,6500.712522,N,02530.959658,E,231604.000,A,A*53
GPS: $GPGSA,A,3,06,03,19,22,16,08,07,,,,,,2.72,1.90,1.94*04
GPS: $GPGSV,2,1,08,06,66,219,39,03,58,261,34,21,50,100,21,19,40,285,39
GPS: 
GPS: 
GPS: 
GPS: 
GPS: 
GSM: 
GSM: UNDER-VOLTAGE WARNNING
GPS: $GPGGA,231605.000,6500.712522,N,02530.959658,E,1,7,1.90,36.733,M,21.545,M,,*6D
GPS: $GPGLL,6500.712522,N,02530.959658,E,231605.000,A,A*52
GPS: $GPGSA,A,3,06,03,19,22,16,08,07,,,,,,2.72,1.90,1.94*04
GPS: $GPGSV,2,1,08,06,66,219,40,03,58,261,34,21,49,100,21,19,40,285,39
GPS: 
GPS: 
GPS: 
GPS: 
GPS: 
GPS: $GPGGA,231606.000,6500.712522,N,02530.959658,E,1,7,1.90,36.733,M,21.545,M,,*6E
GPS: $GPGLL,6500.712522,N,02530.959658,E,231606.000,A,A*51
GPS: $GPGSA,A,3,06,03,19,22,16,08,07,,,,,,2.72,1.90,1.94*04
GPS: $GPGSV,2,1,08,06,66,219,39,03,58,261,34,21,49,100,23,19,40,285,39
GPS: 
GPS: 
GPS: 
GPS: 
GPS: 
GPS: 
GPS: 
GPS: 
GPS: 
GPS: 
GPS: 
GPS: 
GPS: 
GPS: 
GPS: $GPGGA,231608.000,6500.712522,N,02530.959658,E,1,7,1.90,36.733,M,21.545,M,,*60
GPS: $GPGLL,6500.712522,N,02530.959658,E,231608.000,A,A*5F
GPS: $GPGSA,A,3,06,03,19,22,16,08,07,,,,,,2.72,1.90,1.94*04
GPS: $GPGSV,2,1,08,06,66,219,39,03,58,261,33,21,49,100,22,19,40,285,39
GPS: 
GPS: 
GPS: 
GPS: 
GPS: 
GPS: $GPGGA,231609.000,6500.712522,N,02530.959658,E,1,7,1.90,36.733,M,21.545,M,,*61
GPS: $GPGLL,6500.712522,N,02530.959658,E,231609.000,A,A*5E
GPS: $GPGSA,A,3,06,03,19,22,16,08,07,,,,,,2.72,1.90,1.94*04
GPS: $GPGSV,2,1,08,06,66,219,39,03,58,261,34,21,49,100,22,19,40,285,40
GPS: 
GPS: 
GPS: 
GPS: 
GPS: 
GPS: $GPGGA,231610.000,6500.712522,N,02530.959658,E,1,7,1.90,36.733,M,21.545,M,,*69
GPS: $GPGLL,6500.712522,N,02530.959658,E,231610.000,A,A*56
GPS: $GPGSA,A,3,06,03,19,22,16,08,07,,,,,,2.72,1.90,1.94*04
GPS: $GPGSV,2,1,08,06,66,219,39,03,58,261,33,21,49,100,22,19,40,285,40,2.72,1.90,1.94*04
GPS: $GPGSV,2,1,08,06,66,219,38,03,58,261,34,21,49,100,20,19,40,2*73
GPS: $GPGSV,2,2,08,22,36,179,38,16,29,216,37,08,21,340,16,310,29*7D
GPS: $GPRMC,231611.000,A,6500.712522,N,02530.95E,0.000,0.0,040513,,,A*63
GPS: $GPVTG,0.0,T,,M,0.000,N,0.000,K,A*0D
GPS: $GPZDA,231611.000,0413,,*51
GSM: 
GSM: UNDER-VOLTAGE WARNNING
GPS: 
GPS: 
GPS: 
GPS: 
GPS: 
GPS: 
GPS: 
GPS: 
GPS: 
GPS: $GPGGA,231612.000,6500.712522,N,02530.959658,E,1,7,1.90,36.733,M,21.545,M,,*6B
GPS: $GPGLL,6500.712522,N,02530.959658,E,231612.000,A,A*54
GPS: $GPGSA,A,3,06,03,19,22,16,08,07,,,,,,2.72,1.90,1.94*04
GPS: $GPGSV,2,1,08,06,66,219,38,03,58,261,34,21,49,100,20,19,40,285,40
GPS: 
GPS: 
GPS: 
GPS: 
GPS: 
GPS: $GPGGA,231613.000,6500.712522,N,02530.959658,E,1,7,1.90,36.733,M,21.545,M,,*6A
GPS: $GPGLL,6500.712522,N,02530.959658,E,231613.000,A,A*55
GPS: $GPGSA,A,3,06,03,19,22,16,08,07,,,,,,2.72,1.90,1.94*04
GPS: $GPGSV,2,1,08,06,66,219,39,03,58,261,33,21,49,100,19,19,40,285,40
GPS: 
GPS: 
GPS: 
GPS: 
GPS: 
GPS: $GPGGA,231614.000,6500.712522,N,02530.959658,E,1,7,1.90,36.733,M,21.545,M,,*6D
GPS: $GPGLL,6500.712522,N,02530.959658,E,231614.000,A,A*52
GPS: $GPGSA,A,3,06,03,19,22,16,08,07,,,,,,2.72,1.90,1.94*04
GPS: $GPGSV,2,1,08,06,66,219,38,03,58,261,33,21,49,100,19,19,40,285,40
GPS: 
GPS: 
GPS: 
GPS: 
GPS: 
GPS: $GPGGA,231615.000,6500.712522,N,02530.959658,E,1,7,1.90,36.733,M,21.545,M,,*6C
GPS: $GPGLL,6500.712522,N,02530.959658,E,231615.000,A,A*53
GPS: $GPGSA,A,3,06,03,19,22,16,08,07,,,,,,2.72,1.90,1.94*04
GPS: $GPGSV,2,1,08,06,66,219,38,03,58,261,34,21,49,100,19,19,40,285,40
GPS: 
GPS: 
GPS: 
GPS: 
GPS: 
GSM: 
GSM: UNDER-VOLTAGE WARNNING
GPS: 
GPS: 
GPS: 
GPS: 
GPS: 
GPS: 
GPS: 
GPS: 
GPS: 
GPS: $GPGGA,231617.000,6500.712522,N,02530.959658,E,1,7,1.90,36.733,M,21.545,M,,*6E
GPS: $GPGLL,6500.712522,N,02530.959658,E,231617.000,A,A*51
GPS: $GPGSA,A,3,06,03,19,22,16,08,07,,,,,,2.72,1.90,1.94*04
GPS: $GPGSV,2,1,08,06,66,219,38,03,58,261,33,21,49,100,19,19,40,285,40
GPS: 
GPS: 
GPS: 
GPS: 
GPS: 
GPS: $GPGGA,231618.000,6500.712522,N,02530.959658,E,1,7,1.90,36.733,M,21.545,M,,*61
GPS: $GPGLL,6500.712522,N,02530.959658,E,231618.000,A,A*5E
GPS: $GPGSA,A,3,06,03,19,22,16,08,07,,,,,,2.72,1.90,1.94*04
GPS: $GPGSV,2,1,08,06,66,219,38,03,58,261,33,21,49,100,18,19,40,285,41
GPS: 
GPS: 
GPS: 
GPS: 
GPS: 
GPS: $GPGGA,231619.000,6500.712522,N,02530.959658,E,1,7,1.90,36.733,M,21.545,M,,*60
GPS: $GPGLL,6500.712522,N,02530.959658,E,231619.000,A,A*5F
GPS: $GPGSA,A,3,06,03,19,22,16,08,07,,,,,,2.71,1.90,1.94*07
GPS: $GPGSV,2,1,08,06,66,219,39,03,58,261,33,21,49,100,18,19,40,285,40
GPS: 
GPS: 
GPS: 
GPS: 
GPS: 
GPS: 
GPS: 
GPS: 
GPS: 
GPS: 
GPS: 
GPS: 
GPS: 
GPS: 
GPS: $GPGGA,231621.000,6500.712522,N,02530.959658,E,1,7,1.90,36.733,M,21.545,M,,*6B
GPS: $GPGLL,6500.712522,N,02530.959658,E,231621.000,A,A*54
GPS: $GPGSA,A,3,06,03,19,22,16,08,07,,,,,,2.72,1.90,1.94*04
GPS: $GPGSV,2,1,08,06,66,219,39,03,58,261,33,21,49,100,17,19,40,285,40
GPS: 
GPS: 
GPS: 
GPS: 
GPS: 
GSM: 
GSM: UNDER-VOLTAGE WARNNING
GPS: $GPGGA,231622.000,6500.712522,N,02530.959658,E,1,7,1.90,36.733,M,21.545,M,,*68
GPS: $GPGLL,6500.712522,N,02530.959658,E,231622.000,A,A*57
GPS: $GPGSA,A,3,06,03,19,22,16,08,07,,,,,,2.72,1.90,1.94*04
GPS: $GPGSV,2,1,08,06,66,219,39,03,58,261,33,21,49,100,17,19,40,285,40
GPS: 
GPS: 
GPS: 
GPS: 
GPS: 
GPS: $GPGGA,231623.000,6500.712522,N,02530.959658,E,1,6,1.94,36.733,M,21.545,M,,*6C
GPS: $GPGLL,6500.712522,N,02530.959658,E,231623.000,A,A*56
GPS: $GPGSA,A,3,06,19,22,16,08,07,,,,,,,3.02,1.94,2.32*0A
GPS: $GPGSV,2,1,08,06,66,219,38,03,58,261,33,21,49,100,17,19,40,285,40*7
GPS: 
GPS: 
GPS: 
GPS: 
GPS: 
GPS: 
GPS: 
GPS: 
GPS: 
GPS: 
GPS: 
GPS: 
GPS: 
GPS: 
GPS: $GPGGA,231625.000,6500.712522,N,02530.959658,E,1,6,1.94,36.733,M,21.545,M,,*6A
GPS: $GPGLL,6500.712522,N,02530.959658,E,231625.000,A,A*50
GPS: $GPGSA,A,3,06,19,22,16,08,07,,,,,,,3.02,1.94,2.32*0A
GPS: $GPGSV,2,1,08,06,66,219,39,03,58,261,33,21,49,100,17,19,40,285,40*7
GPS: 
GPS: 
GPS: 
GPS: 
GPS: 
GPS: $GPGGA,231626.000,6500.712522,N,02530.959658,E,1,7,1.90,36.733,M,21.545,M,,*6C
GPS: $GPGLL,6500.712522,N,02530.959658,E,231626.000,A,A*53
GPS: $GPGSA,A,3,06,03,19,22,16,08,07,,,,,,2.72,1.90,1.94*04
GPS: $GPGSV,2,1,08,06,66,219,38,03,58,261,33,21,49,100,16,19,40,285,40
GPS: 
GPS: 
GPS: 
GPS: 
GPS: 
GSM: 
GSM: UNDER-VOLTAGE WARNNING
GPS: $GPGGA,231627.000,6500.712522,N,02530.959658,E,1,7,1.90,36.733,M,21.545,M,,*6D
GPS: $GPGLL,6500.712522,N,02530.959658,E,231627.000,A,A*52
GPS: $GPGSA,A,3,06,03,19,22,16,08,07,,,,,,2.71,1.90,1.94*07
GPS: $GPGSV,2,1,08,06,66,219,38,03,58,261,33,21,49,100,16,19,40,285,40
GPS: 
GPS: 
GPS: 
GPS: 
GPS: 
GPS: 
GPS: 
GPS: 
GPS: 
GPS: 
GPS: 
GPS: 
GPS: 
GPS: 
GPS: $GPGGA,231629.000,6500.712522,N,02530.959658,E,1,6,1.94,36.733,M,21.545,M,,*66
GPS: $GPGLL,6500.712522,N,02530.959658,E,231629.000,A,A*5C
GPS: $GPGSA,A,3,06,19,22,16,08,07,,,,,,,3.02,1.94,2.32*0A
GPS: $GPGSV,2,1,08,06,66,219,39,03,58,261,32,21,49,100,15,19,40,285,40*7
GPS: 
GPS: 
GPS: 
GPS: 
GPS: 
GSM: 
GSM: UNDER-VOLTAGE WARNNING
GPS: $GPGGA,231630.000,6500.712522,N,02530.959658,E,1,6,1.94,36.733,M,21.545,M,,*6E
GPS: $GPGLL,6500.712522,N,02530.959658,E,231630.000,A,A*54
GPS: $GPGSA,A,3,06,19,22,16,08,07,,,,,,,3.02,1.94,2.32*0A
GPS: $GPGSV,2,1,08,06,66,219,40,03,58,261,32,21,49,100,15,19,40,285,40*7
GPS: 
GPS: 
GPS: 
GPS: 
GPS: 
GPS: $GPGGA,231631.000,6500.712522,N,02530.959658,E,1,7,1.90,36.733,M,21.545,M,,*6A
GPS: $GPGLL,6500.712522,N,02530.959658,E,231631.000,A,A*55
GPS: $GPGSA,A,3,06,03,19,22,16,08,07,,,,,,2.72,1.90,1.94*04
GPS: $GPGSV,2,1,08,06,66,219,39,03,58,261,32,21,49,100,16,19,40,285,40
GPS: 
GPS: 
GPS: 
GPS: 
GPS: 
GPS: 
GPS: 
GPS: 
GPS: 
GPS: 
GPS: 
GPS: 
GPS: 
GPS: 
GPS: $GPGGA,231633.000,6500.712522,N,02530.959658,E,1,7,1.90,36.733,M,21.545,M,,*68
GPS: $GPGLL,6500.712522,N,02530.959658,E,231633.000,A,A*57
GPS: $GPGSA,A,3,06,03,19,22,16,08,07,,,,,,2.71,1.90,1.94*07
GPS: $GPGSV,2,1,08,06,66,219,40,03,58,261,30,21,49,100,16,19,40,285,40
GPS: 
GPS: 
GPS: 
GPS: 
GPS: 
GPS: $GPGGA,231634.000,6500.712522,N,02530.959658,E,1,7,1.90,36.733,M,21.545,M,,*6F
GPS: $GPGLL,6500.712522,N,02530.959658,E,231634.000,A,A*50
GPS: $GPGSA,A,3,06,03,19,22,16,08,07,,,,,,2.71,1.90,1.94*07
GPS: $GPGSV,2,1,08,06,66,219,40,03,58,261,29,21,49,100,17,19,40,285,40
GPS: 
GPS: 
GPS: 
GPS: 
GPS: 
GSM: 
GSM: UNDER-VOLTAGE WARNNING
GPS: $GPGGA,231635.000,6500.712522,N,02530.959658,E,1,7,1.90,36.733,M,21.545,M,,*6E
GPS: $GPGLL,6500.712522,N,02530.959658,E,231635.000,A,A*51
GPS: $GPGSA,A,3,06,03,19,22,16,08,07,,,,,,2.72,1.90,1.94*04
GPS: $GPGSV,2,1,08,06,66,219,40,03,58,261,31,21,49,100,17,19,40,285,40
GPS: 
GPS: 
GPS: 
GPS: 
GPS: 
